{"type":"FeatureCollection","features":[{"type":"Feature","geometry":{"type":"Point","coordinates":[-102.71967776,21.84721647]},"properties":{"name":"VINOS Y LICORES CASA VELASCO","address":"CALLE HERMANOS GALEANA #207","settlement":"COLONIA CENTRO","cp":"20800","id":"32","category":"461211","i":1}},{"type":"Feature","geometry":{"type":"Point","coordinates":[-102.71761415,21.84778757]},"properties":{"name":"LA OFICINA BAR","address":"CALLE CRIST&Oacute;BAL COL&Oacute;N #105","settlement":"COLONIA CENTRO","cp":"20800","id":"90","category":"722412","i":2}},{"type":"Feature","geometry":{"type":"Point","coordinates":[-102.71814589,21.84709071]},"properties":{"name":"LA ULTRAMARINA BAR","address":"CALLE CENTENARIO #404","settlement":"COLONIA CENTRO","cp":"20800","id":"140","category":"722412","i":3}},{"type":"Feature","geometry":{"type":"Point","coordinates":[-102.71824096,21.84744744]},"properties":{"name":"VINOS Y LICORES EL MANANTIAL","address":"CALLE CENTENARIO #414","settlement":"COLONIA CENTRO","cp":"20800","id":"146","category":"461211","i":4}},{"type":"Feature","geometry":{"type":"Point","coordinates":[-102.7191844,21.84710631]},"properties":{"name":"VINOS Y LICORES","address":"CALLE IGNACIO ALLENDE #206","settlement":"COLONIA CENTRO","cp":"20800","id":"195","category":"461211","i":5}},{"type":"Feature","geometry":{"type":"Point","coordinates":[-102.71926232,21.84664869]},"properties":{"name":"MISTER VINO","address":"CALLE INDEPENDENCIA #0","settlement":"COLONIA CENTRO","cp":"20800","id":"200","category":"461211","i":6}},{"type":"Feature","geometry":{"type":"Point","coordinates":[-102.71880842,21.84987792]},"properties":{"name":"VINOS Y LICORES LA FIESTA","address":"PRIVADA NINGUNO #105","settlement":"COLONIA ADOLFO L&Oacute;PEZ MATEOS","cp":"20802","id":"275","category":"461211","i":7}},{"type":"Feature","geometry":{"type":"Point","coordinates":[-102.72242531,21.84437416]},"properties":{"name":"LICORERIA LOS BANQUITOS","address":"CALLE GUANAJUATO #0","settlement":"COLONIA LOS ANGELES","cp":"20800","id":"320","category":"461211","i":8}},{"type":"Feature","geometry":{"type":"Point","coordinates":[-102.72228711,21.84433216]},"properties":{"name":"BAR LA COPA DE ORO","address":"CALLE JES&Uacute;S TER&Aacute;N #0","settlement":"COLONIA LOS ANGELES","cp":"20800","id":"325","category":"722412","i":9}},{"type":"Feature","geometry":{"type":"Point","coordinates":[-102.72199588,21.84506087]},"properties":{"name":"FOCO ROJO BAR","address":"CALLE 5 DE MAYO #417","settlement":"COLONIA CENTRO","cp":"20800","id":"330","category":"722412","i":10}},{"type":"Feature","geometry":{"type":"Point","coordinates":[-102.71969096,21.84554961]},"properties":{"name":"CANTINA LAS PALMAS","address":"CALLE MATAMOROS #400","settlement":"COLONIA CENTRO","cp":"20800","id":"347","category":"722412","i":11}},{"type":"Feature","geometry":{"type":"Point","coordinates":[-102.73313634,21.84353422]},"properties":{"name":"DEPOSITO LOS GATOS","address":"CALLE INDEPENDENCIA #117","settlement":"FRACCIONAMIENTO INDEPENDENCIA","cp":"20800","id":"463","category":"461212","i":12}},{"type":"Feature","geometry":{"type":"Point","coordinates":[-102.72600879,21.84349489]},"properties":{"name":"VINOS Y LICORES EL TRIUNFO","address":"CALLE GUADALUPE PERALTA #0","settlement":"COLONIA LAS FLORES","cp":"20800","id":"470","category":"461211","i":13}},{"type":"Feature","geometry":{"type":"Point","coordinates":[-102.72977697,21.84351766]},"properties":{"name":"DEPOSITO LA PALMA","address":"PROLONGACI&Oacute;N 5 DE MAYO #0","settlement":"COLONIA LAS FLORES","cp":"20800","id":"478","category":"461212","i":14}},{"type":"Feature","geometry":{"type":"Point","coordinates":[-102.73210072,21.84078991]},"properties":{"name":"LADIES BAR EL TABERNERO","address":"CALLE PROFESORA HERMELINDA ESTRADA #309","settlement":"COLONIA LAS FLORES","cp":"20800","id":"484","category":"722412","i":15}},{"type":"Feature","geometry":{"type":"Point","coordinates":[-102.73048096,21.84354849]},"properties":{"name":"LA PE&Ntilde;A TAURINA BAR","address":"PROLONGACI&Oacute;N 5 DE MAYO #136","settlement":"COLONIA LAS FLORES","cp":"20800","id":"492","category":"722412","i":16}},{"type":"Feature","geometry":{"type":"Point","coordinates":[-102.73191446,21.84055744]},"properties":{"name":"SUPER CRISTAL","address":"BOULEVARD LIBRAMIENTO CALVILLO-JALPA #0","settlement":"COLONIA LAS FLORES","cp":"20800","id":"500","category":"461212","i":17}},{"type":"Feature","geometry":{"type":"Point","coordinates":[-102.72891039,21.83983568]},"properties":{"name":"LA COVACHA LADIES BAR","address":"BOULEVARD LIBRAMIENTO CALVILLO-JALPA #0","settlement":"COLONIA EL CERRITO ALTO","cp":"20800","id":"505","category":"722412","i":18}},{"type":"Feature","geometry":{"type":"Point","coordinates":[-102.71657508,21.84720601]},"properties":{"name":"KALI CAF&Eacute;","address":"CALLE BENITO JU&Aacute;REZ #211","settlement":"COLONIA CENTRO","cp":"20800","id":"614","category":"722412","i":19}},{"type":"Feature","geometry":{"type":"Point","coordinates":[-102.71674856,21.84639557]},"properties":{"name":"LA ESPERANZA VINOS Y LICORES","address":"CALLE ZARAGOZA #207","settlement":"COLONIA CENTRO","cp":"20800","id":"630","category":"461211","i":20}},{"type":"Feature","geometry":{"type":"Point","coordinates":[-102.71103315,21.84678103]},"properties":{"name":"LA CATRINA MERENDERO BAR","address":"BOULEVARD RODOLFO LANDEROS GALLEGOS #110","settlement":"COLONIA CENTRO","cp":"20800","id":"659","category":"722412","i":21}},{"type":"Feature","geometry":{"type":"Point","coordinates":[-102.71069801,21.84639267]},"properties":{"name":"CHARLYS BAR","address":"BOULEVARD RODOLFO LANDEROS GALLEGOS #221","settlement":"COLONIA DEL CARMEN","cp":"20800","id":"817","category":"722412","i":22}},{"type":"Feature","geometry":{"type":"Point","coordinates":[-102.71274327,21.84142414]},"properties":{"name":"VINATER&Iacute;A ANDREA","address":"CALLE CUAUHT&Eacute;MOC #149","settlement":"COLONIA DEL CARMEN","cp":"20804","id":"899","category":"461211","i":23}},{"type":"Feature","geometry":{"type":"Point","coordinates":[-102.70566352,21.84735139]},"properties":{"name":"VINOS Y LICORES EL CHINO","address":"BOULEVARD RODOLFO LANDEROS GALLEGOS #330","settlement":"COLONIA JOS&Eacute; LANDEROS","cp":"20800","id":"908","category":"461211","i":24}},{"type":"Feature","geometry":{"type":"Point","coordinates":[-102.70558031,21.8473803]},"properties":{"name":"LOS CAPORALES LADYS BAR","address":"BOULEVARD RODOLFO LANDEROS GALLEGOS #0","settlement":"COLONIA JOS&Eacute; LANDEROS","cp":"20800","id":"911","category":"722412","i":25}},{"type":"Feature","geometry":{"type":"Point","coordinates":[-102.704426,21.84748295]},"properties":{"name":"EL FLACO BAR","address":"BOULEVARD RODOLFO LANDEROS GALLEGOS #423","settlement":"COLONIA JOS&Eacute; LANDEROS","cp":"20800","id":"932","category":"722412","i":26}},{"type":"Feature","geometry":{"type":"Point","coordinates":[-102.70107453,21.84896631]},"properties":{"name":"VINOS Y LICORES GUADALAJARA","address":"BOULEVARD RODOLFO LANDEROS GALLEGOS #448","settlement":"COLONIA RINC&Oacute;N DE BALTAZAREZ","cp":"20800","id":"975","category":"461211","i":27}},{"type":"Feature","geometry":{"type":"Point","coordinates":[-102.67189491,21.8784158]},"properties":{"name":"VINOS Y LICORES LA FORTUNA","address":"AVENIDA INSURGENTES #218","settlement":"COLONIA LA FORTUNA","cp":"20834","id":"1013","category":"461211","i":28}},{"type":"Feature","geometry":{"type":"Point","coordinates":[-102.68464334,21.87346701]},"properties":{"name":"VINOS Y LICORES ZARCO","address":"BOULEVARD RODOLFO LANDEROS GALLEGOS #308","settlement":"COLONIA LOS ARCOS","cp":"20860","id":"1159","category":"461211","i":29}},{"type":"Feature","geometry":{"type":"Point","coordinates":[-102.32549832,21.87164122]},"properties":{"name":"LADIES BAR QUINTA 81","address":"BOULEVARD LICENCIADO ADOLFO RU&Iacute;Z CORTINES #0","settlement":"PARQUE INDUSTRIAL EL VERGEL","cp":"20219","id":"1179","category":"722412","i":30}},{"type":"Feature","geometry":{"type":"Point","coordinates":[-102.32253458,21.87152312]},"properties":{"name":"VINOS ALAMEDA","address":"BOULEVARD LICENCIADO ADOLFO RU&Iacute;Z CORTINES #722 Int 2","settlement":"FRACCIONAMIENTO JARDINES PIRULES","cp":"20216","id":"1200","category":"461211","i":31}},{"type":"Feature","geometry":{"type":"Point","coordinates":[-102.31255787,21.88010519]},"properties":{"name":"MICHELADAS JAGGER","address":"AVENIDA CONVENCI&Oacute;N DE 1914 PONIENTE #620","settlement":"COLONIA SAN MARCOS","cp":"20070","id":"1311","category":"722412","i":32}},{"type":"Feature","geometry":{"type":"Point","coordinates":[-102.31838852,21.8728826]},"properties":{"name":"DEPOSITO DE CERVEZA AUTO LATA","address":"AVENIDA AGUASCALIENTES PONIENTE #201","settlement":"FRACCIONAMIENTO RESIDENCIAL DEL VALLE","cp":"20080","id":"1420","category":"461212","i":33}},{"type":"Feature","geometry":{"type":"Point","coordinates":[-102.31836518,21.87753228]},"properties":{"name":"DEP&Oacute;SITO MU&Ntilde;OZ","address":"CALLE NAVARRETE #1001","settlement":"FRACCIONAMIENTO SAN MARCOS","cp":"20078","id":"1526","category":"461212","i":34}},{"type":"Feature","geometry":{"type":"Point","coordinates":[-102.32092826,21.87701395]},"properties":{"name":"TECATE SIX DINAMARCA","address":"CALLE DINAMARCA #201","settlement":"FRACCIONAMIENTO SAN MARCOS","cp":"20078","id":"1552","category":"461212","i":35}},{"type":"Feature","geometry":{"type":"Point","coordinates":[-102.31790536,21.87858626]},"properties":{"name":"TECATE SIX","address":"AVENIDA AGUASCALIENTES PONIENTE #0","settlement":"COLONIA SAN MARCOS","cp":"20070","id":"1565","category":"461212","i":36}},{"type":"Feature","geometry":{"type":"Point","coordinates":[-102.31265128,21.88438545]},"properties":{"name":"BAR ROCKSI","address":"AVENIDA CONVENCI&Oacute;N DE 1914 PONIENTE #1020","settlement":"COLONIA G&Oacute;MEZ","cp":"20060","id":"1650","category":"722412","i":37}},{"type":"Feature","geometry":{"type":"Point","coordinates":[-102.31724841,21.89629953]},"properties":{"name":"VINO EXPRESS","address":"AVENIDA AGUASCALIENTES PONIENTE #1108","settlement":"FRACCIONAMIENTO COLINAS DEL R&Iacute;O","cp":"20010","id":"1776","category":"461211","i":38}},{"type":"Feature","geometry":{"type":"Point","coordinates":[-102.3266629,21.94204448]},"properties":{"name":"KIOSSKO BEER","address":"BOULEVARD LICENCIADO MIGUEL DE LA MADRID #1022","settlement":"CIUDAD INDUSTRIAL CORRAL DE BARRANCOS","cp":"20900","id":"1944","category":"461212","i":39}},{"type":"Feature","geometry":{"type":"Point","coordinates":[-102.33202702,21.94534673]},"properties":{"name":"DEP&Oacute;SITO DE CERVEZA","address":"CALLE 15 DE MAYO #213","settlement":"FRACCIONAMIENTO MISI&Oacute;N DE SAN JOS&Eacute;","cp":"20900","id":"1947","category":"461212","i":40}},{"type":"Feature","geometry":{"type":"Point","coordinates":[-102.33011837,21.94510806]},"properties":{"name":"DEP&Oacute;SITO Y BOTANAS SIN NOMBRE","address":"CALLE 15 DE MAYO #102","settlement":"COLONIA CORRAL DE BARRANCOS","cp":"20900","id":"1951","category":"461212","i":41}},{"type":"Feature","geometry":{"type":"Point","coordinates":[-102.32866825,21.94410947]},"properties":{"name":"EL COYOTE UGLY","address":"BOULEVARD LICENCIADO MIGUEL DE LA MADRID #2824","settlement":"COLONIA CORRAL DE BARRANCOS","cp":"20900","id":"1959","category":"722411","i":42}},{"type":"Feature","geometry":{"type":"Point","coordinates":[-102.3376211,21.92445884]},"properties":{"name":"VINOS LICORES CORONADO","address":"AVENIDA EUGENIO GARZA SADA #501","settlement":"FRACCIONAMIENTO LOMAS DE SAN JOS&Eacute; DE LOS POCITOS","cp":"20328","id":"2033","category":"461211","i":43}},{"type":"Feature","geometry":{"type":"Point","coordinates":[-102.33677715,21.92257266]},"properties":{"name":"VINOS Y LICORES EL LIC","address":"AVENIDA EUGENIO GARZA SADA #262","settlement":"FRACCIONAMIENTO SAN JOS&Eacute; DE LOS POCITOS","cp":"20328","id":"2087","category":"461211","i":44}},{"type":"Feature","geometry":{"type":"Point","coordinates":[-102.33491272,21.91901395]},"properties":{"name":"VINOS Y LICORES EL GATO","address":"AVENIDA EUGENIO GARZA SADA #203","settlement":"FRACCIONAMIENTO SAN JOS&Eacute; DE LOS POCITOS","cp":"20328","id":"2105","category":"461211","i":45}},{"type":"Feature","geometry":{"type":"Point","coordinates":[-102.27287229,21.98132523]},"properties":{"name":"VINOS Y LICORES EL ATORON","address":"AVENIDA NINGUNO #122","settlement":"COLONIA EJIDO LA GUAYANA RANCHO SECO","cp":"","id":"2129","category":"461211","i":46}},{"type":"Feature","geometry":{"type":"Point","coordinates":[-102.3124155,21.89740382]},"properties":{"name":"GENERACI&Oacute;N X MICHELADAS","address":"AVENIDA FUNDICI&Oacute;N #1803","settlement":"FRACCIONAMIENTO SAN CAYETANO","cp":"20010","id":"2347","category":"722412","i":47}},{"type":"Feature","geometry":{"type":"Point","coordinates":[-102.30547018,21.89847349]},"properties":{"name":"BAR MISTER NICO","address":"AVENIDA UNIVERSIDAD #122","settlement":"FRACCIONAMIENTO SAN CAYETANO","cp":"2010","id":"2371","category":"722412","i":48}},{"type":"Feature","geometry":{"type":"Point","coordinates":[-102.30443721,21.86731151]},"properties":{"name":"SEVEN SINS","address":"AVENIDA CONVENCI&Oacute;N DE 1914 SUR #903","settlement":"FRACCIONAMIENTO SANTA ELENA","cp":"20230","id":"2469","category":"722412","i":49}},{"type":"Feature","geometry":{"type":"Point","coordinates":[-102.31418388,21.89592737]},"properties":{"name":"ABARROTES Y VTA DE CERVEZA KRISMAR","address":"CALLE PEDRO GARC&Iacute;A ROJAS #1116","settlement":"COLONIA OLIVARES SANTANA","cp":"20010","id":"2560","category":"461211","i":50}},{"type":"Feature","geometry":{"type":"Point","coordinates":[-102.34018613,21.96607605]},"properties":{"name":"ABARROTES OSMAND","address":"CALLE CALVARIO #0","settlement":"COLONIA CENTRO","cp":"20900","id":"2708","category":"461211","i":51}},{"type":"Feature","geometry":{"type":"Point","coordinates":[-102.3406581,21.96454597]},"properties":{"name":"ABARROTES SIN NOMBRE","address":"CALLE H&Eacute;ROE DE NACOZARI #507","settlement":"COLONIA CENTRO","cp":"20900","id":"2717","category":"461211","i":52}},{"type":"Feature","geometry":{"type":"Point","coordinates":[-102.34839135,21.96644812]},"properties":{"name":"VINOS Y LICORES LA CACEROLITA","address":"CALLE BENIGNO CH&Aacute;VEZ #601","settlement":"COLONIA LAS PALMAS","cp":"20900","id":"2758","category":"461211","i":53}},{"type":"Feature","geometry":{"type":"Point","coordinates":[-102.34705841,21.96351455]},"properties":{"name":"BAR EL ATORON","address":"CALLE MARIANO MATAMOROS #501","settlement":"COLONIA ZONA CENTRO","cp":"20900","id":"2786","category":"722412","i":54}},{"type":"Feature","geometry":{"type":"Point","coordinates":[-102.34820693,21.96376718]},"properties":{"name":"LONCHER&Iacute;A LA PALMA","address":"CALLE MARIANO MATAMOROS #606","settlement":"COLONIA ZONA CENTRO","cp":"20900","id":"2791","category":"722412","i":55}},{"type":"Feature","geometry":{"type":"Point","coordinates":[-102.34616216,21.96228372]},"properties":{"name":"VINOS Y BOTANAS DANIEL","address":"CALLE IGNACIO ALLENDE #312","settlement":"COLONIA ZONA CENTRO","cp":"20900","id":"3038","category":"461211","i":56}},{"type":"Feature","geometry":{"type":"Point","coordinates":[-102.34449574,21.95906241]},"properties":{"name":"VINOS Y LICORES AVENIDA","address":"CALLE ALDAMA #202","settlement":"COLONIA MARTINEZ ANDRADE","cp":"20900","id":"3181","category":"461211","i":57}},{"type":"Feature","geometry":{"type":"Point","coordinates":[-102.33938388,21.95584221]},"properties":{"name":"DEPOSITO DE CORONA","address":"AVENIDA MIGUEL HIDALGO #603","settlement":"FRACCIONAMIENTO AGUA ZARCA","cp":"20925","id":"3235","category":"461212","i":58}},{"type":"Feature","geometry":{"type":"Point","coordinates":[-102.34196536,21.95391411]},"properties":{"name":"ABARROTES MARI","address":"CALLE TOM&Aacute;S LUNA #110","settlement":"FRACCIONAMIENTO BENIGNO CHAVEZ","cp":"20900","id":"3266","category":"461212","i":59}},{"type":"Feature","geometry":{"type":"Point","coordinates":[-102.34284027,21.95317623]},"properties":{"name":"VINOS Y LICORES EL REY","address":"CALLE TEODORO OLIVARES SANTANA #222","settlement":"FRACCIONAMIENTO BENIGNO CHAVEZ","cp":"20900","id":"3271","category":"461211","i":60}},{"type":"Feature","geometry":{"type":"Point","coordinates":[-102.33802969,21.95433534]},"properties":{"name":"ABARROTES VINOS Y LICORES ELY","address":"AVENIDA ALEJANDRO DE LA CRUZ SAUCEDO #309","settlement":"COLONIA VISTAS DEL S&Aacute;UZ","cp":"20925","id":"3299","category":"461211","i":61}},{"type":"Feature","geometry":{"type":"Point","coordinates":[-102.34759546,21.95137123]},"properties":{"name":"MERENDERO EL CUATRERO","address":"CALLE FELICIANO MART&Iacute;NEZ CRUZ #204","settlement":"COLONIA LOMA DE LA CA&Ntilde;ADA","cp":"20926","id":"3352","category":"722412","i":62}},{"type":"Feature","geometry":{"type":"Point","coordinates":[-102.34335355,21.94818341]},"properties":{"name":"VINOS Y LICORES IBARRA","address":"AVENIDA EUGENIO GARZA SADA #0","settlement":"FRACCIONAMIENTO LOMAS DE JES&Uacute;S MAR&Iacute;A","cp":"20925","id":"3409","category":"461211","i":63}},{"type":"Feature","geometry":{"type":"Point","coordinates":[-102.35169828,21.95539496]},"properties":{"name":"LONCHER&Iacute;A LOS CHINOS","address":"AVENIDA PIRULES #503","settlement":"COLONIA LA CA&Ntilde;ADA","cp":"20927","id":"3414","category":"722412","i":64}},{"type":"Feature","geometry":{"type":"Point","coordinates":[-102.35202074,21.94854861]},"properties":{"name":"ABARROTES VINOS Y LICORES SIN NOMBRE","address":"AVENIDA ROM&Aacute;N LOERA #899","settlement":"COLONIA LOMA ALTA","cp":"20900","id":"3423","category":"461211","i":65}},{"type":"Feature","geometry":{"type":"Point","coordinates":[-102.35222227,21.94682852]},"properties":{"name":"CANTINA LOS PERICOS","address":"PRIVADA ROM&Aacute;N LOERA #1107","settlement":"COLONIA LOMA ALTA","cp":"20926","id":"3426","category":"722412","i":66}},{"type":"Feature","geometry":{"type":"Point","coordinates":[-102.27162996,21.87767089]},"properties":{"name":"BAR T&Iacute;O SAM","address":"AVENIDA CONVENCI&Oacute;N DE 1914 ORIENTE #103","settlement":"FRACCIONAMIENTO JARDINES DE LA CRUZ","cp":"20250","id":"3445","category":"722412","i":67}},{"type":"Feature","geometry":{"type":"Point","coordinates":[-102.33951821,21.85925123]},"properties":{"name":"EXPENDIO DE CERVEZA SIX","address":"CALLE PASEO DE YAHUALICA #102","settlement":"FRACCIONAMIENTO CANTERAS DE SAN JAVIER","cp":"20207","id":"3539","category":"461212","i":68}},{"type":"Feature","geometry":{"type":"Point","coordinates":[-102.3186284,21.85388649]},"properties":{"name":"LOS TRES ARCANGELES","address":"CALLE RICARDO GARC&Iacute;A MENDOZA #303","settlement":"FRACCIONAMIENTO JOS&Eacute; L&Oacute;PEZ PORTILLO","cp":"20206","id":"3639","category":"461212","i":69}},{"type":"Feature","geometry":{"type":"Point","coordinates":[-102.31893401,21.85400189]},"properties":{"name":"TECATE SIX","address":"CALLE RICARDO GARC&Iacute;A MENDOZA #311","settlement":"FRACCIONAMIENTO JOS&Eacute; L&Oacute;PEZ PORTILLO","cp":"20206","id":"3643","category":"461212","i":70}},{"type":"Feature","geometry":{"type":"Point","coordinates":[-102.31960748,21.85425838]},"properties":{"name":"M D","address":"CALLE RICARDO GARC&Iacute;A MENDOZA #503","settlement":"FRACCIONAMIENTO JOS&Eacute; L&Oacute;PEZ PORTILLO","cp":"20206","id":"3652","category":"461211","i":71}},{"type":"Feature","geometry":{"type":"Point","coordinates":[-102.32523396,21.854316]},"properties":{"name":"VINOS Y LICORES EL BARRANQUE&Ntilde;O","address":"CALLE JOS&Eacute; MAR&Iacute;A GONZ&Aacute;LEZ BOCANEGRA #1311","settlement":"FRACCIONAMIENTO JOS&Eacute; L&Oacute;PEZ PORTILLO","cp":"20206","id":"3710","category":"461211","i":72}},{"type":"Feature","geometry":{"type":"Point","coordinates":[-102.31758318,21.86570134]},"properties":{"name":"LONCHER&Iacute;A ANITA","address":"AVENIDA AGUASCALIENTES PONIENTE #1709","settlement":"COLONIA ESPA&Ntilde;A","cp":"20210","id":"4107","category":"722412","i":73}},{"type":"Feature","geometry":{"type":"Point","coordinates":[-102.31081382,21.8700536]},"properties":{"name":"MICHELADAS LA CUADRA","address":"AVENIDA CONVENCI&Oacute;N DE 1914 PONIENTE #1122 Int 5","settlement":"FRACCIONAMIENTO BARRANCA DE GUADALUPE","cp":"20210","id":"4210","category":"722412","i":74}},{"type":"Feature","geometry":{"type":"Point","coordinates":[-102.31308911,21.86677999]},"properties":{"name":"DEP&Oacute;SITO DE CERVEZA SIX TECATE","address":"CALLE ESPA&Ntilde;A #911","settlement":"FRACCIONAMIENTO ESPA&Ntilde;A","cp":"20210","id":"4341","category":"461212","i":75}},{"type":"Feature","geometry":{"type":"Point","coordinates":[-102.30437126,21.87475459]},"properties":{"name":"SAL&Oacute;N TROPICUBA","address":"CALLE LOS LAURELES #602","settlement":"COLONIA LAS FLORES","cp":"20220","id":"4431","category":"722411","i":76}},{"type":"Feature","geometry":{"type":"Point","coordinates":[-102.30248436,21.87541199]},"properties":{"name":"VINOS Y LICORES LUIS","address":"CALLE ROSAS #102","settlement":"COLONIA LAS FLORES","cp":"20210","id":"4452","category":"461211","i":77}},{"type":"Feature","geometry":{"type":"Point","coordinates":[-102.30199775,21.87561923]},"properties":{"name":"EL GATO AZUL","address":"CALLE LOS LAURELES #110","settlement":"COLONIA LAS FLORES","cp":"20220","id":"4454","category":"722412","i":78}},{"type":"Feature","geometry":{"type":"Point","coordinates":[-102.30205059,21.87426578]},"properties":{"name":"VINOS Y LICORES EL GUSANO ROJO","address":"CALLE ROSAS #203","settlement":"COLONIA LAS FLORES","cp":"20220","id":"4466","category":"461211","i":79}},{"type":"Feature","geometry":{"type":"Point","coordinates":[-102.3116931,21.87280502]},"properties":{"name":"LA BANDOLERA","address":"AVENIDA CONVENCI&Oacute;N DE 1914 PONIENTE #310","settlement":"FRACCIONAMIENTO CIRCUNVALACI&Oacute;N PONIENTE","cp":"20210","id":"4587","category":"722412","i":80}},{"type":"Feature","geometry":{"type":"Point","coordinates":[-102.31149766,21.87329382]},"properties":{"name":"LA MANZANA","address":"AVENIDA CONVENCI&Oacute;N DE 1914 PONIENTE #0","settlement":"FRACCIONAMIENTO CIRCUNVALACI&Oacute;N PONIENTE","cp":"20210","id":"4595","category":"722412","i":81}},{"type":"Feature","geometry":{"type":"Point","coordinates":[-102.30932285,21.86818043]},"properties":{"name":"LA CARLOTTA","address":"AVENIDA CONVENCI&Oacute;N DE 1914 PONIENTE #0","settlement":"FRACCIONAMIENTO LAS TORRES","cp":"20229","id":"4599","category":"722411","i":82}},{"type":"Feature","geometry":{"type":"Point","coordinates":[-102.29057544,21.87055173]},"properties":{"name":"LA &Eacute;POCA DEL RECUERDO","address":"AVENIDA AYUNTAMIENTO #0","settlement":"FRACCIONAMIENTO LOS CEDROS","cp":"20270","id":"4621","category":"722411","i":83}},{"type":"Feature","geometry":{"type":"Point","coordinates":[-102.28552435,21.86864488]},"properties":{"name":"DEP&Oacute;SITO DE CERVEZA SIN NOMBRE","address":"AVENIDA AYUNTAMIENTO #414","settlement":"FRACCIONAMIENTO CAMINERO","cp":"20270","id":"4738","category":"461212","i":84}},{"type":"Feature","geometry":{"type":"Point","coordinates":[-102.28540982,21.86859447]},"properties":{"name":"LOS LIRIOS BAR","address":"AVENIDA AYUNTAMIENTO #414","settlement":"FRACCIONAMIENTO CAMINERO","cp":"20270","id":"4739","category":"722412","i":85}},{"type":"Feature","geometry":{"type":"Point","coordinates":[-102.30117582,21.87275399]},"properties":{"name":"BOOM URBAN GRILL","address":"AVENIDA LAS AM&Eacute;RICAS #115","settlement":"FRACCIONAMIENTO LA FUENTE","cp":"20239","id":"4813","category":"722412","i":86}},{"type":"Feature","geometry":{"type":"Point","coordinates":[-102.30067324,21.87340879]},"properties":{"name":"MERENDERO SAN PANCHO","address":"AVENIDA LAS AM&Eacute;RICAS #0","settlement":"FRACCIONAMIENTO LA FUENTE","cp":"20239","id":"4986","category":"722412","i":87}},{"type":"Feature","geometry":{"type":"Point","coordinates":[-102.30207801,21.87008949]},"properties":{"name":"LEPAON","address":"AVENIDA LAS AM&Eacute;RICAS #704","settlement":"FRACCIONAMIENTO LAS AM&Eacute;RICAS","cp":"20230","id":"5031","category":"722412","i":88}},{"type":"Feature","geometry":{"type":"Point","coordinates":[-102.29933122,21.86669866]},"properties":{"name":"BAR CORONITA","address":"CALLE REP&Uacute;BLICA DE BRASIL #508","settlement":"FRACCIONAMIENTO LAS AM&Eacute;RICAS","cp":"20230","id":"5142","category":"722412","i":89}},{"type":"Feature","geometry":{"type":"Point","coordinates":[-102.29804096,21.86657593]},"properties":{"name":"BAR LA CENTRAL","address":"AVENIDA QUINTA #502","settlement":"FRACCIONAMIENTO LAS AM&Eacute;RICAS","cp":"20230","id":"5238","category":"722412","i":90}},{"type":"Feature","geometry":{"type":"Point","coordinates":[-102.29743516,21.86579659]},"properties":{"name":"IMPORVINO DE AGUASCALIENTES","address":"AVENIDA CONVENCI&Oacute;N DE 1914 SUR #310","settlement":"FRACCIONAMIENTO LAS AM&Eacute;RICAS","cp":"20230","id":"5272","category":"461211","i":91}},{"type":"Feature","geometry":{"type":"Point","coordinates":[-102.2985052,21.86439554]},"properties":{"name":"LICORES ALAMEDA","address":"AVENIDA QUINTA #716","settlement":"FRACCIONAMIENTO LAS AM&Eacute;RICAS","cp":"20230","id":"5295","category":"461211","i":92}},{"type":"Feature","geometry":{"type":"Point","coordinates":[-102.30330131,21.86582193]},"properties":{"name":"BAR LA BOLA","address":"AVENIDA LAS AM&Eacute;RICAS #1405","settlement":"FRACCIONAMIENTO JARDINES DE SANTA ELENA","cp":"20236","id":"5367","category":"722412","i":93}},{"type":"Feature","geometry":{"type":"Point","coordinates":[-102.30326326,21.86599581]},"properties":{"name":"BAR LOS ARCOS","address":"AVENIDA LAS AM&Eacute;RICAS #1401","settlement":"FRACCIONAMIENTO JARDINES DE SANTA ELENA SEGUNDA SECCI&Oacute;N","cp":"20236","id":"5372","category":"722412","i":94}},{"type":"Feature","geometry":{"type":"Point","coordinates":[-102.30326368,21.8668078]},"properties":{"name":"KIOSSKO BEER","address":"AVENIDA CONVENCI&Oacute;N DE 1914 SUR #802","settlement":"FRACCIONAMIENTO JARDINES DE SANTA ELENA SEGUNDA SECCI&Oacute;N","cp":"20236","id":"5378","category":"461212","i":95}},{"type":"Feature","geometry":{"type":"Point","coordinates":[-102.30320716,21.86507144]},"properties":{"name":"BAR MI PUEBLITO","address":"AVENIDA LAS AM&Eacute;RICAS #0","settlement":"FRACCIONAMIENTO JARDINES DE SANTA ELENA SEGUNDA SECCI&Oacute;N","cp":"20236","id":"5483","category":"722412","i":96}},{"type":"Feature","geometry":{"type":"Point","coordinates":[-102.30051605,21.86112474]},"properties":{"name":"MERENDERO LAS TARRAS","address":"AVENIDA QUINTA #811","settlement":"FRACCIONAMIENTO EL DORADO PRMERA SECCI&Oacute;N","cp":"20235","id":"5522","category":"722412","i":97}},{"type":"Feature","geometry":{"type":"Point","coordinates":[-102.28193858,21.87047639]},"properties":{"name":"DEP&Oacute;SITO LA BATALLA","address":"AVENIDA H&Eacute;ROE DE NACOZARI SUR #1201","settlement":"BARRIO LA SALUD","cp":"20240","id":"5654","category":"461212","i":98}},{"type":"Feature","geometry":{"type":"Point","coordinates":[-102.28199343,21.8696663]},"properties":{"name":"DEP&Oacute;SITO DE CERVEZA SIX TECATE","address":"AVENIDA H&Eacute;ROE DE NACOZARI SUR #1301","settlement":"BARRIO LA SALUD","cp":"20240","id":"5663","category":"461212","i":99}},{"type":"Feature","geometry":{"type":"Point","coordinates":[-102.27987228,21.87165001]},"properties":{"name":"EXPENDIO DE CERVEZA SIN NOMBRE","address":"RETORNO PASAJE PEDRO PARGA #107","settlement":"UNIDAD HABITACIONAL IV CENTENARIO","cp":"20260","id":"5718","category":"461212","i":100}},{"type":"Feature","geometry":{"type":"Point","coordinates":[-102.28436611,21.86616281]},"properties":{"name":"LA CANTERA","address":"AVENIDA CONVENCI&Oacute;N DE 1914 SUR #1301","settlement":"FRACCIONAMIENTO JARDINES DE LA LUZ","cp":"20269","id":"5754","category":"461212","i":101}},{"type":"Feature","geometry":{"type":"Point","coordinates":[-102.28150036,21.86655034]},"properties":{"name":"VINOS Y LICORES JARDINES","address":"AVENIDA CONVENCI&Oacute;N DE 1914 SUR #1205","settlement":"COLONIA OJO DE AGUA","cp":"20260","id":"5797","category":"461211","i":102}},{"type":"Feature","geometry":{"type":"Point","coordinates":[-102.27712937,21.86663896]},"properties":{"name":"VINOS Y LICORES LA CAVA","address":"AVENIDA MARIANO ESCOBEDO #1503","settlement":"COLONIA OJO DE AGUA","cp":"20260","id":"5824","category":"461211","i":103}},{"type":"Feature","geometry":{"type":"Point","coordinates":[-102.28262439,21.86226072]},"properties":{"name":"VINOS Y LICORES","address":"AVENIDA H&Eacute;ROE DE NACOZARI SUR #1106","settlement":"FRACCIONAMIENTO M&Eacute;XICO","cp":"20270","id":"5956","category":"461211","i":104}},{"type":"Feature","geometry":{"type":"Point","coordinates":[-102.27916726,21.86221647]},"properties":{"name":"VINOS Y LICORES M&Eacute;XICO","address":"CALLE CASA BLANCA #707","settlement":"FRACCIONAMIENTO M&Eacute;XICO","cp":"20270","id":"6030","category":"461212","i":105}},{"type":"Feature","geometry":{"type":"Point","coordinates":[-102.28152261,21.8599706]},"properties":{"name":"DEP&Oacute;SITO Y BOTANAS DON ROBERT","address":"AVENIDA AGUASCALIENTES SUR #301","settlement":"FRACCIONAMIENTO M&Eacute;XICO","cp":"20270","id":"6102","category":"461212","i":106}},{"type":"Feature","geometry":{"type":"Point","coordinates":[-102.28243541,21.855005]},"properties":{"name":"LAS ESPUELAS","address":"AVENIDA H&Eacute;ROE DE NACOZARI SUR #2419","settlement":"FRACCIONAMIENTO JARDINES DE LAS BUGAMBILIAS","cp":"20280","id":"6294","category":"722412","i":107}},{"type":"Feature","geometry":{"type":"Point","coordinates":[-102.28222954,21.85380498]},"properties":{"name":"LA CANTINA DE ANTA&Ntilde;O","address":"AVENIDA H&Eacute;ROE DE NACOZARI SUR #107","settlement":"FRACCIONAMIENTO JARDINES DEL PARQUE","cp":"20276","id":"6303","category":"722412","i":108}},{"type":"Feature","geometry":{"type":"Point","coordinates":[-102.28221962,21.85374524]},"properties":{"name":"BURLESQUE","address":"AVENIDA H&Eacute;ROE DE NACOZARI SUR #0","settlement":"FRACCIONAMIENTO JARDINES DEL PARQUE","cp":"20276","id":"6304","category":"722411","i":109}},{"type":"Feature","geometry":{"type":"Point","coordinates":[-102.28217313,21.85346518]},"properties":{"name":"SALOON SCHESTER","address":"AVENIDA H&Eacute;ROE DE NACOZARI SUR #2505","settlement":"FRACCIONAMIENTO JARDINES DEL PARQUE","cp":"20276","id":"6307","category":"722412","i":110}},{"type":"Feature","geometry":{"type":"Point","coordinates":[-102.28106238,21.85598436]},"properties":{"name":"SIX PIR&Aacute;MIDES","address":"AVENIDA MONTE ALB&Aacute;N #172","settlement":"FRACCIONAMIENTO PIR&Aacute;MIDES","cp":"20277","id":"6352","category":"461212","i":111}},{"type":"Feature","geometry":{"type":"Point","coordinates":[-102.30356685,21.85941874]},"properties":{"name":"MERENDERO SANTA BARRIGA","address":"AVENIDA AGUASCALIENTES SUR #301","settlement":"FRACCIONAMIENTO EL DORADO PRIMERA SECCI&Oacute;N","cp":"20235","id":"6382","category":"722412","i":112}},{"type":"Feature","geometry":{"type":"Point","coordinates":[-102.31193498,21.86251181]},"properties":{"name":"DEP&Oacute;SITO DE CERVEZA SIX AGOSTADERITO","address":"AVENIDA DE LOS MAESTROS #1914","settlement":"FRACCIONAMIENTO EL DORADO SEGUNDA SECCI&Oacute;N","cp":"20235","id":"6444","category":"461212","i":113}},{"type":"Feature","geometry":{"type":"Point","coordinates":[-102.30592775,21.85844733]},"properties":{"name":"LICORES ALAMEDA","address":"AVENIDA AGUASCALIENTES SUR #710","settlement":"FRACCIONAMIENTO BOULEVARES PRIMERA SECCI&Oacute;N","cp":"20288","id":"6519","category":"461211","i":114}},{"type":"Feature","geometry":{"type":"Point","coordinates":[-102.30125971,21.85312779]},"properties":{"name":"LICORES BOULEVARES","address":"CALLE PROLONGACI&Oacute;N PASEO DE LA ASUNCI&Oacute;N #501","settlement":"FRACCIONAMIENTO BOULEVARES SEGUNDA SECCI&Oacute;N","cp":"20288","id":"6618","category":"461211","i":115}},{"type":"Feature","geometry":{"type":"Point","coordinates":[-102.29780663,21.85885045]},"properties":{"name":"CHELADAS GREEN","address":"AVENIDA AGUASCALIENTES SUR #300","settlement":"FRACCIONAMIENTO PRADOS DEL SUR","cp":"20280","id":"6629","category":"722412","i":116}},{"type":"Feature","geometry":{"type":"Point","coordinates":[-102.29425589,21.85138505]},"properties":{"name":"LICORES ALAMEDA","address":"AVENIDA MAHATMA GANDHI #205","settlement":"COLONIA MART&Iacute;NEZ DOM&Iacute;NGUEZ","cp":"20280","id":"6754","category":"461211","i":117}},{"type":"Feature","geometry":{"type":"Point","coordinates":[-102.30078541,21.85231067]},"properties":{"name":"LICORES ALAMEDA","address":"PROLONGACI&Oacute;N PASEO DE LA ASUNCI&Oacute;N #1224","settlement":"UNIDAD HABITACIONAL PILAR BLANCO","cp":"20289","id":"6781","category":"461211","i":118}},{"type":"Feature","geometry":{"type":"Point","coordinates":[-102.30123759,21.84940022]},"properties":{"name":"VINOS Y LICORES LA FRONTERITA","address":"PROLONGACI&Oacute;N PASEO DE LA ASUNCI&Oacute;N #305","settlement":"COLONIA INSURGENTES","cp":"20287","id":"7029","category":"461211","i":119}},{"type":"Feature","geometry":{"type":"Point","coordinates":[-102.30125714,21.84921185]},"properties":{"name":"DEP&Oacute;SITO EL CHINO","address":"PROLONGACI&Oacute;N PASEO DE LA ASUNCI&Oacute;N #309","settlement":"COLONIA INSURGENTES","cp":"20287","id":"7030","category":"461212","i":120}},{"type":"Feature","geometry":{"type":"Point","coordinates":[-102.30154831,21.84794818]},"properties":{"name":"CANTERA PILAR BLANCO","address":"CALLE ABRAHAM GONZ&Aacute;LEZ #2411","settlement":"COLONIA INSURGENTES","cp":"20287","id":"7040","category":"461212","i":121}},{"type":"Feature","geometry":{"type":"Point","coordinates":[-102.31111454,21.85877905]},"properties":{"name":"POOL 54 CLUB","address":"AVENIDA AGUASCALIENTES SUR #250","settlement":"FRACCIONAMIENTO VERSALLES SEGUNDA SECCI&Oacute;N","cp":"20285","id":"7093","category":"722412","i":122}},{"type":"Feature","geometry":{"type":"Point","coordinates":[-102.30441447,21.85045618]},"properties":{"name":"LICORES ALAMEDA","address":"AVENIDA CONVENCI&Oacute;N #1904","settlement":"COLONIA INSURGENTES","cp":"20287","id":"7271","category":"461211","i":123}},{"type":"Feature","geometry":{"type":"Point","coordinates":[-102.27809538,21.89941203]},"properties":{"name":"DEP&Oacute;SITO LA RED","address":"AVENIDA GABRIELA MISTRAL #219","settlement":"FRACCIONAMIENTO SANTA ANITA","cp":"20169","id":"7433","category":"461212","i":124}},{"type":"Feature","geometry":{"type":"Point","coordinates":[-102.3158661,21.85589929]},"properties":{"name":"EL ENCIERRO","address":"AVENIDA DE LOS MAESTROS #2644","settlement":"FRACCIONAMIENTO VERSALLES SEGUNDA SECCI&Oacute;N","cp":"20285","id":"7583","category":"722412","i":125}},{"type":"Feature","geometry":{"type":"Point","coordinates":[-102.31532375,21.85538589]},"properties":{"name":"VINOS Y LICORES VERSALLES","address":"AVENIDA DOCTOR MARIANO AZUELA #203","settlement":"FRACCIONAMIENTO VERSALLES SEGUNDA SECCI&Oacute;N","cp":"20285","id":"7689","category":"461211","i":126}},{"type":"Feature","geometry":{"type":"Point","coordinates":[-102.31159977,21.85202719]},"properties":{"name":"LICORES ALAMEDA","address":"AVENIDA CONVENCI&Oacute;N #705","settlement":"FRACCIONAMIENTO INSURGENTES","cp":"20287","id":"7727","category":"461211","i":127}},{"type":"Feature","geometry":{"type":"Point","coordinates":[-102.25621325,21.89778827]},"properties":{"name":"ABARROTES CON VENTA DE CERVEZA SIN NOMBRE","address":"CALLE MIGUEL &Aacute;NGEL BARBERENA VEGA #1220","settlement":"FRACCIONAMIENTO MUNICIPIO LIBRE","cp":"20199","id":"7760","category":"461212","i":128}},{"type":"Feature","geometry":{"type":"Point","coordinates":[-102.25767727,21.89411147]},"properties":{"name":"TIENDA DE ABARROTES SIN NOMBRE","address":"CALLE ESFUERZO NACIONAL #908","settlement":"FRACCIONAMIENTO MUNICIPIO LIBRE","cp":"20199","id":"7795","category":"461212","i":129}},{"type":"Feature","geometry":{"type":"Point","coordinates":[-102.25905777,21.90083164]},"properties":{"name":"DEP&Oacute;SITO DE CERVEZA SIX LANDEROS","address":"AVENIDA RODOLFO LANDEROS GALLEGOS #102","settlement":"FRACCIONAMIENTO RODOLFO LANDEROS GALLEGOS","cp":"20170","id":"7873","category":"461212","i":130}},{"type":"Feature","geometry":{"type":"Point","coordinates":[-102.25822887,21.90101651]},"properties":{"name":"VINOS Y LICORES JULIO","address":"AVENIDA RODOLFO LANDEROS GALLEGOS #130","settlement":"FRACCIONAMIENTO ROOLFO LANERO GALLEGOS","cp":"20170","id":"7876","category":"461212","i":131}},{"type":"Feature","geometry":{"type":"Point","coordinates":[-102.2578598,21.89134503]},"properties":{"name":"DEP&Oacute;SITO DE CERVEZA SIX","address":"AVENIDA OJOCALIENTE #202","settlement":"FRACCIONAMIENTO FIDEL VEL&Aacute;ZQUEZ","cp":"20199","id":"7968","category":"461212","i":132}},{"type":"Feature","geometry":{"type":"Point","coordinates":[-102.26715745,21.89512259]},"properties":{"name":"LICORES ALAMEDA","address":"CALLE MIGUEL &Aacute;NGEL BARBERENA VEGA #503","settlement":"FRACCIONAMIENTO MUNICIPIO LIBRE","cp":"20199","id":"8039","category":"461211","i":133}},{"type":"Feature","geometry":{"type":"Point","coordinates":[-102.25378267,21.89354678]},"properties":{"name":"VINOS Y LICORES EL AMIGO","address":"AVENIDA SIGLO XXI #126","settlement":"FRACCIONAMIENTO FIDEL VEL&Aacute;ZQUEZ","cp":"20199","id":"8109","category":"461211","i":134}},{"type":"Feature","geometry":{"type":"Point","coordinates":[-102.27480426,21.88347405]},"properties":{"name":"CERVECER&Iacute;A GILBERTO","address":"AVENIDA ALAMEDA #609","settlement":"COLONIA H&Eacute;ROES","cp":"20190","id":"8201","category":"722412","i":135}},{"type":"Feature","geometry":{"type":"Point","coordinates":[-102.274496,21.88147338]},"properties":{"name":"VINO EXPRESS","address":"CALLE TENIENTE JUAN DE LA BARRERA #326","settlement":"COLONIA H&Eacute;ROES","cp":"20190","id":"8212","category":"461211","i":136}},{"type":"Feature","geometry":{"type":"Point","coordinates":[-102.2559223,21.88554749]},"properties":{"name":"EXPENDIO DE VINOS SIN NOMBRE","address":"AVENIDA OJOCALIENTE #312","settlement":"COLONIA OJOCALIENTE I","cp":"20190","id":"8503","category":"461211","i":137}},{"type":"Feature","geometry":{"type":"Point","coordinates":[-102.2549866,21.88267882]},"properties":{"name":"VINOS Y LICORES MU&Ntilde;OZ","address":"CALLE EL SALTO DE LOS SALADO #507","settlement":"COLONIA OJOCALIENTE I","cp":"20190","id":"8525","category":"461211","i":138}},{"type":"Feature","geometry":{"type":"Point","coordinates":[-102.252645,21.90242187]},"properties":{"name":"DEP&Oacute;SITO DE CERVEZA SIX P&Eacute;RICOS","address":"AVENIDA RODOLFO LANDEROS GALLEGOS #556","settlement":"FRACCIONAMIENTO RODOLFO LANDEROS GALLEGOS","cp":"20170","id":"8692","category":"461212","i":139}},{"type":"Feature","geometry":{"type":"Point","coordinates":[-102.25012333,21.90297879]},"properties":{"name":"DEP&Oacute;SITO DE CERVEZA TECATE SIX","address":"AVENIDA RODOLFO LANDEROS GALLEGOS #663","settlement":"FRACCIONAMIENTO RODOLFO LANDEROS GALLEGOS","cp":"20170","id":"8719","category":"461212","i":140}},{"type":"Feature","geometry":{"type":"Point","coordinates":[-102.2936812,21.83364956]},"properties":{"name":"EXPENDIO DE CERVEZA SIX TECATE","address":"AVENIDA MAHATMA GANDHI #2001","settlement":"FRACCIONAMIENTO CASAS&Oacute;LIDA","cp":"20280","id":"9030","category":"461212","i":141}},{"type":"Feature","geometry":{"type":"Point","coordinates":[-102.29371748,21.83300415]},"properties":{"name":"VINOS Y LICORES LA CAVA DE TO&Ntilde;O","address":"AVENIDA MAHATMA GANDHI #2033","settlement":"FRACCIONAMIENTO CASAS&Oacute;LIDA","cp":"20280","id":"9088","category":"461211","i":142}},{"type":"Feature","geometry":{"type":"Point","coordinates":[-102.24885764,21.8979126]},"properties":{"name":"DEP&Oacute;SITO EL TO&Ntilde;AZO","address":"CALLE REINAS DE LA FERIA #583","settlement":"FRACCIONAMIENTO MUNICIPIO LIBRE","cp":"20199","id":"9409","category":"461212","i":143}},{"type":"Feature","geometry":{"type":"Point","coordinates":[-102.29606974,21.84846684]},"properties":{"name":"CANTERA VILLASUNCI&Oacute;N","address":"CALLE ABRAHAM GONZ&Aacute;LEZ #236","settlement":"FRACCIONAMIENTO PRADOS DE VILLASUNCI&Oacute;N","cp":"20280","id":"9577","category":"461212","i":144}},{"type":"Feature","geometry":{"type":"Point","coordinates":[-102.29516766,21.84454861]},"properties":{"name":"LICORES ALAMEDA","address":"AVENIDA SIGLO XXI #104","settlement":"COLONIA SAN PEDRO","cp":"20280","id":"9608","category":"461211","i":145}},{"type":"Feature","geometry":{"type":"Point","coordinates":[-102.29487118,21.84454233]},"properties":{"name":"DEP&Oacute;SITO DE CERVEZA SIX TECATE SAN PEDRO","address":"AVENIDA SIGLO XXI #111","settlement":"COLONIA SAN PEDRO","cp":"20280","id":"9621","category":"461212","i":146}},{"type":"Feature","geometry":{"type":"Point","coordinates":[-102.29386266,21.84340719]},"properties":{"name":"MINICHUPER","address":"AVENIDA MAHATMA GANDHI #307","settlement":"COLONIA SAN PEDRO","cp":"20280","id":"9639","category":"461212","i":147}},{"type":"Feature","geometry":{"type":"Point","coordinates":[-102.29378092,21.84198149]},"properties":{"name":"BOTANAS EL CHINO","address":"AVENIDA MAHATMA GANDHI #601","settlement":"COLONIA SAN PEDRO","cp":"20280","id":"9670","category":"461212","i":148}},{"type":"Feature","geometry":{"type":"Point","coordinates":[-102.3010298,21.84188735]},"properties":{"name":"DEP&Oacute;SITO DE CERVEZA SIX TECATE","address":"CALLE MAYOR PABLO GARC&Iacute;A #614","settlement":"FRACCIONAMIENTO VILLAS DE SANTA ROSA","cp":"20284","id":"9693","category":"461212","i":149}},{"type":"Feature","geometry":{"type":"Point","coordinates":[-102.29910479,21.84169068]},"properties":{"name":"ABARROTES VINOS Y LICORES EL PARAISO","address":"CALLE CANARIO #602","settlement":"FRACCIONAMIENTO LA ESTANCIA","cp":"20284","id":"9702","category":"461211","i":150}},{"type":"Feature","geometry":{"type":"Point","coordinates":[-102.29763949,21.84465092]},"properties":{"name":"DEPOSITO Y BOTANAS","address":"AVENIDA SIGLO XXI #104","settlement":"UNIDAD HABITACIONAL POTREROS DEL OESTE","cp":"20284","id":"9755","category":"461212","i":151}},{"type":"Feature","geometry":{"type":"Point","coordinates":[-102.24967888,21.88464354]},"properties":{"name":"LA CANTERA","address":"CALLE HACIENDA SALTO DE LOS SALADOS #105","settlement":"FRACCIONAMIENTO HACIENDAS DE AGUASCALIENTES","cp":"20196","id":"9936","category":"461212","i":152}},{"type":"Feature","geometry":{"type":"Point","coordinates":[-102.23537702,21.88399887]},"properties":{"name":"TECATE SIX","address":"CALLE SAN FRANCISCO DE LOS VIVEROS #2125","settlement":"FRACCIONAMIENTO BALCONES DE ORIENTE","cp":"20196","id":"9999","category":"461212","i":153}},{"type":"Feature","geometry":{"type":"Point","coordinates":[-102.23548156,21.88109562]},"properties":{"name":"LA CANTERA","address":"AVENIDA VISTAS DE ORIENTE #201","settlement":"FRACCIONAMIENTO VISTAS DE ORIENTE","cp":"20196","id":"10006","category":"461212","i":154}},{"type":"Feature","geometry":{"type":"Point","coordinates":[-102.24887619,21.88786141]},"properties":{"name":"DEP&Oacute;SITO EL AGUAJE","address":"AVENIDA HACIENDA DE OJOCALIENTE #139","settlement":"FRACCIONAMIENTO HACIENDAS DE AGUASCALIENTES","cp":"","id":"10093","category":"461211","i":155}},{"type":"Feature","geometry":{"type":"Point","coordinates":[-102.29279078,21.93848267]},"properties":{"name":"VINOS Y LICORES EL REY","address":"AVENIDA NI&Ntilde;OS H&Eacute;ROES #116","settlement":"FRACCIONAMIENTO TROJES DE ALONSO","cp":"20116","id":"10231","category":"461211","i":156}},{"type":"Feature","geometry":{"type":"Point","coordinates":[-102.29716351,21.93622958]},"properties":{"name":"VINOS Y LICORES EL REY","address":"AVENIDA INDEPENDENCIA #2311","settlement":"FRACCIONAMIENTO TROJES DE ALONSO","cp":"20116","id":"10275","category":"461211","i":157}},{"type":"Feature","geometry":{"type":"Point","coordinates":[-102.29719442,21.93774718]},"properties":{"name":"TECATE SIX TROJES","address":"AVENIDA INDEPENDENCIA #2416","settlement":"FRACCIONAMIENTO TROJES DE ALONSO","cp":"20116","id":"10323","category":"461212","i":158}},{"type":"Feature","geometry":{"type":"Point","coordinates":[-102.25289511,21.8809313]},"properties":{"name":"LA CANTERA","address":"AVENIDA OJOCALIENTE #1002","settlement":"COLONIA OJOCALIENTE I","cp":"20190","id":"10369","category":"461212","i":159}},{"type":"Feature","geometry":{"type":"Point","coordinates":[-102.24666087,21.88010289]},"properties":{"name":"DEPOSITO DE CERVEZA Y BOTANAS EL PRIMO","address":"CALLE SAN FRANCISCO DE LOS VIVEROS #1129","settlement":"FRACCIONAMIENTO OJOCALIENTE III","cp":"20196","id":"10457","category":"461212","i":160}},{"type":"Feature","geometry":{"type":"Point","coordinates":[-102.24647252,21.88016445]},"properties":{"name":"SIX TECATE","address":"CALLE SAN FRANCISCO DE LOS VIVEROS #1201","settlement":"FRACCIONAMIENTO OJOCALIENTE III","cp":"20196","id":"10461","category":"461212","i":161}},{"type":"Feature","geometry":{"type":"Point","coordinates":[-102.2459541,21.88034266]},"properties":{"name":"VINOS Y LICORES ADCE","address":"CALLE SAN FRANCISCO DE LOS VIVEROS #1307","settlement":"FRACCIONAMIENTO OJOCALIENTE III","cp":"20196","id":"10463","category":"461211","i":162}},{"type":"Feature","geometry":{"type":"Point","coordinates":[-102.30481204,21.92424452]},"properties":{"name":"BAR UNA COPA M&Aacute;S NORTE","address":"PROLONGACI&Oacute;N GENERAL IGNACIO ZARAGOZA #419","settlement":"FRACCIONAMIENTO JARDINES DE LA CONCEPCI&Oacute;N PRIMERA SECCI&Oacute;N","cp":"20120","id":"10488","category":"722412","i":163}},{"type":"Feature","geometry":{"type":"Point","coordinates":[-102.30130617,21.92478138]},"properties":{"name":"MR VINOS","address":"BOULEVARD LUIS DONALDO COLOSIO #601 Int 1","settlement":"FRACCIONAMIENTO JARDINES DE LA CONCEPCI&Oacute;N PRIMERA SECCI&Oacute;N","cp":"20120","id":"10508","category":"461211","i":164}},{"type":"Feature","geometry":{"type":"Point","coordinates":[-102.29996498,21.92487059]},"properties":{"name":"LA CANTINA COLOSIO","address":"BOULEVARD LUIS DONALDO COLOSIO #621","settlement":"FRACCIONAMIENTO JARDINES DE LA CONCEPCI&Oacute;N PRIMERA SECCI&Oacute;N","cp":"20120","id":"10509","category":"722412","i":165}},{"type":"Feature","geometry":{"type":"Point","coordinates":[-102.2986883,21.92495549]},"properties":{"name":"ST JAMES","address":"BOULEVARD LUIS DONALDO COLOSIO #645 Int 4","settlement":"FRACCIONAMIENTO JARDINES DE LA CONCEPCI&Oacute;N PRIMERA SECCI&Oacute;N","cp":"20120","id":"10514","category":"722412","i":166}},{"type":"Feature","geometry":{"type":"Point","coordinates":[-102.31212295,21.92456794]},"properties":{"name":"EUPHUSSION PRECOPA EN LITRO","address":"BOULEVARD LUIS DONALDO COLOSIO #318","settlement":"FRACCIONAMIENTO VALLE DEL CAMPESTRE","cp":"20110","id":"10566","category":"722412","i":167}},{"type":"Feature","geometry":{"type":"Point","coordinates":[-102.30527597,21.92486359]},"properties":{"name":"WINGERS BEER AND FOOD","address":"BOULEVARD LUIS DONALDO COLOSIO #414 Int 4","settlement":"FRACCIONAMIENTO VALLE DE LAS TROJES","cp":"20115","id":"10585","category":"722412","i":168}},{"type":"Feature","geometry":{"type":"Point","coordinates":[-102.25061866,21.8720296]},"properties":{"name":"TECATE SIX","address":"AVENIDA OJOCALIENTE #2033","settlement":"FRACCIONAMIENTO OJOCALIENTE II","cp":"20196","id":"10726","category":"461212","i":169}},{"type":"Feature","geometry":{"type":"Point","coordinates":[-102.24671256,21.87615913]},"properties":{"name":"TIENDA DE ABARROTES ZARANGUA","address":"AVENIDA SIGLO XXI #615","settlement":"FRACCIONAMIENTO OJOCALIENTE III","cp":"20196","id":"10768","category":"461211","i":170}},{"type":"Feature","geometry":{"type":"Point","coordinates":[-102.24636827,21.87410919]},"properties":{"name":"RESTAURANTE LOS CANTARITOS","address":"AVENIDA SIGLO XXI #804","settlement":"FRACCIONAMIENTO OJOCALIENTE III","cp":"20196","id":"10814","category":"722412","i":171}},{"type":"Feature","geometry":{"type":"Point","coordinates":[-102.24612602,21.87348786]},"properties":{"name":"LOS HORGANITOS","address":"AVENIDA SIGLO XXI #822","settlement":"FRACCIONAMIENTO OJOCALIENTE III","cp":"20196","id":"10815","category":"722412","i":172}},{"type":"Feature","geometry":{"type":"Point","coordinates":[-102.24204662,21.87081379]},"properties":{"name":"SIX","address":"CALLE JOS&Eacute; MANUEL RUIZ DE TEJADA Y OTAL #202","settlement":"FRACCIONAMIENTO J GUADALUPE PERALTA G&Aacute;MEZ","cp":"20196","id":"11215","category":"461212","i":173}},{"type":"Feature","geometry":{"type":"Point","coordinates":[-102.24122531,21.86866949]},"properties":{"name":"ABARROTES LOS CUATES","address":"CALLE JOS&Eacute; MANUEL RUIZ DE TEJADA Y OTAL #315","settlement":"FRACCIONAMIENTO J GUADALUPE PERALTA G&Aacute;MEZ","cp":"20196","id":"11566","category":"461212","i":174}},{"type":"Feature","geometry":{"type":"Point","coordinates":[-102.2419246,21.86515293]},"properties":{"name":"TECATE SIX PALMAS","address":"CALLE PALMA MAZARI #129","settlement":"FRACCIONAMIENTO BAJ&Iacute;O DE LAS PALMAS","cp":"20263","id":"11630","category":"461212","i":175}},{"type":"Feature","geometry":{"type":"Point","coordinates":[-102.24115045,21.86889053]},"properties":{"name":"VINOS Y LICORES ALAMEDA","address":"AVENIDA SALUD #201","settlement":"FRACCIONAMIENTO J GUADALUPE PERALTA G&Aacute;MEZ","cp":"20196","id":"11669","category":"461211","i":176}},{"type":"Feature","geometry":{"type":"Point","coordinates":[-102.24961885,21.87023492]},"properties":{"name":"VINOS Y LICORES DEL PUENTE","address":"AVENIDA TECNOL&Oacute;GICO #302","settlement":"EJIDO SALTO DE OJOCALIENTE","cp":"20263","id":"11721","category":"461211","i":177}},{"type":"Feature","geometry":{"type":"Point","coordinates":[-102.24878392,21.8697563]},"properties":{"name":"VINOS Y LICORES EL SALTO","address":"AVENIDA TECNOL&Oacute;GICO #113","settlement":"EJIDO EL SALTO DE OJOCALIENTE","cp":"20263","id":"11736","category":"461211","i":178}},{"type":"Feature","geometry":{"type":"Point","coordinates":[-102.24377215,21.86785877]},"properties":{"name":"LONCHER&Iacute;A S&Aacute;NCHEZ","address":"AVENIDA TECNOL&Oacute;GICO #611","settlement":"FRACCIONAMIENTO SOLIDARIDAD I","cp":"20196","id":"11974","category":"722412","i":179}},{"type":"Feature","geometry":{"type":"Point","coordinates":[-102.29212205,21.9086097]},"properties":{"name":"BAR MACUMBA","address":"BOULEVARD A ZACATECAS #409","settlement":"FRACCIONAMIENTO LAS HADAS","cp":"20140","id":"12419","category":"722412","i":180}},{"type":"Feature","geometry":{"type":"Point","coordinates":[-102.2967494,21.90805876]},"properties":{"name":"ANTARA BAR","address":"AVENIDA INDEPENDENCIA #1405","settlement":"FRACCIONAMIENTO EL PLATEADO","cp":"20137","id":"12459","category":"722412","i":181}},{"type":"Feature","geometry":{"type":"Point","coordinates":[-102.29677392,21.90838073]},"properties":{"name":"VINOFERTAS","address":"AVENIDA INDEPENDENCIA #1411","settlement":"FRACCIONAMIENTO EL PLATEADO","cp":"20137","id":"12463","category":"461211","i":182}},{"type":"Feature","geometry":{"type":"Point","coordinates":[-102.29035702,21.90741849]},"properties":{"name":"VINOS Y LICORES JUNIOR","address":"AVENIDA H&Eacute;ROE DE NACOZARI NORTE #2604","settlement":"FRACCIONAMIENTO LAS HADAS","cp":"20140","id":"12479","category":"461211","i":183}},{"type":"Feature","geometry":{"type":"Point","coordinates":[-102.28125671,21.93618286]},"properties":{"name":"VINOS Y LICORES EL REY","address":"CALLE ART&Iacute;CULO 23 #702","settlement":"FRACCIONAMIENTO SOBERANA CONVENCI&Oacute;N REVOLUCIONARIA","cp":"20126","id":"12575","category":"461211","i":184}},{"type":"Feature","geometry":{"type":"Point","coordinates":[-102.28054366,21.932246]},"properties":{"name":"DEP&Oacute;SITO H&Eacute;CTOR","address":"CALLE GENERAL P&Aacute;NFILO NATERA #101","settlement":"FRACCIONAMIENTO SOBERANA CONVENCI&Oacute;N REVOLUCIONARIA","cp":"20126","id":"12622","category":"461212","i":185}},{"type":"Feature","geometry":{"type":"Point","coordinates":[-102.28238878,21.93314924]},"properties":{"name":"VINOS Y LICORES LA SOBERANA","address":"AVENIDA CONSTITUCI&Oacute;N #1403","settlement":"FRACCIONAMIENTO SOBERANA CONVENCI&Oacute;N REVOLUCIONARIA","cp":"20126","id":"12636","category":"461211","i":186}},{"type":"Feature","geometry":{"type":"Point","coordinates":[-102.2631256,21.93067691]},"properties":{"name":"DEP&Oacute;SITO DE CERVEZA SIX TECATE","address":"AVENIDA GER&Oacute;NIMO DE LA CUEVA #0","settlement":"FRACCIONAMIENTO VILLAS DE NUESTRA SE&Ntilde;ORA DE LA ASUNCI&Oacute;N SECTOR ALAMEDA","cp":"20126","id":"12668","category":"461212","i":187}},{"type":"Feature","geometry":{"type":"Point","coordinates":[-102.27095292,21.87204471]},"properties":{"name":"VINOFERTAS","address":"AVENIDA CONVENCI&Oacute;N DE 1914 ORIENTE #803","settlement":"FRACCIONAMIENTO JES&Uacute;S TER&Aacute;N PEREDO","cp":"20260","id":"12822","category":"461211","i":188}},{"type":"Feature","geometry":{"type":"Point","coordinates":[-102.27411594,21.87792755]},"properties":{"name":"TECATE SIX","address":"CALLE JAIME NUN&Oacute; #599","settlement":"FRACCIONAMIENTO JARDINES DE LA CRUZ","cp":"20250","id":"12894","category":"461212","i":189}},{"type":"Feature","geometry":{"type":"Point","coordinates":[-102.26779272,21.87231074]},"properties":{"name":"TECATE SIX","address":"CALLE V&Iacute;A L&Aacute;CTEA #202","settlement":"FRACCIONAMIENTO JES&Uacute;S G&Oacute;MEZ PORTUGAL","cp":"20250","id":"13004","category":"461212","i":190}},{"type":"Feature","geometry":{"type":"Point","coordinates":[-102.26668745,21.86982283]},"properties":{"name":"SHOKER VINOS Y LICORES","address":"AVENIDA PERSEO #323","settlement":"FRACCIONAMIENTO JES&Uacute;S G&Oacute;MEZ PORTUGAL","cp":"20250","id":"13059","category":"461211","i":191}},{"type":"Feature","geometry":{"type":"Point","coordinates":[-102.25855665,21.87279836]},"properties":{"name":"DEPOSITO DE CERVEZA VAQUEROS","address":"AVENIDA PASEO DE LA CRUZ #801","settlement":"FRACCIONAMIENTO OJOCALIENTE FOVISSSTE II","cp":"20256","id":"13180","category":"461212","i":192}},{"type":"Feature","geometry":{"type":"Point","coordinates":[-102.25688928,21.86244933]},"properties":{"name":"CANTERA DE CERVEZA SIX INFONAVIT MORELOS","address":"CALLE BONAMPAK #208","settlement":"UNIDAD HABITACIONAL MORELOS","cp":"20264","id":"13219","category":"461212","i":193}},{"type":"Feature","geometry":{"type":"Point","coordinates":[-102.25218397,21.86370951]},"properties":{"name":"MODELORAMA AUTOLATA","address":"CALLE AJONJOL&Iacute; #0","settlement":"FRACCI&Oacute;N EL CEDAZO","cp":"20295","id":"13304","category":"461212","i":194}},{"type":"Feature","geometry":{"type":"Point","coordinates":[-102.27338686,21.8623978]},"properties":{"name":"DEPOSITO FRECUENCI","address":"AVENIDA MARIANO ESCOBEDO #501","settlement":"FRACCIONAMIENTO VISTA DEL SOL","cp":"20270","id":"13391","category":"461212","i":195}},{"type":"Feature","geometry":{"type":"Point","coordinates":[-102.27303646,21.86190448]},"properties":{"name":"DEPOSITO DE CERVEZA SIX","address":"AVENIDA MARIANO ESCOBEDO #443","settlement":"FRACCIONAMIENTO VISTA DEL SOL","cp":"20270","id":"13406","category":"461212","i":196}},{"type":"Feature","geometry":{"type":"Point","coordinates":[-102.26928571,21.86106157]},"properties":{"name":"BOTANAS LOCAS","address":"AVENIDA ARQUEROS #202","settlement":"FRACCIONAMIENTO VISTA DEL SOL","cp":"20266","id":"13430","category":"461212","i":197}},{"type":"Feature","geometry":{"type":"Point","coordinates":[-102.25262435,21.86236202]},"properties":{"name":"SIX EL CEDAZO","address":"CALLE A #3410","settlement":"FRACCIONAMIENTO EL CEDAZO","cp":"20295","id":"13690","category":"461212","i":198}},{"type":"Feature","geometry":{"type":"Point","coordinates":[-102.26544644,21.91677581]},"properties":{"name":"VENTA DE BOTANA Y CERVEZA SIN NOMBRE","address":"CALLE CARLOS FUENTES MARES #519","settlement":"FRACCIONAMIENTO PINTORES MEXICANOS","cp":"20179","id":"13756","category":"461212","i":199}},{"type":"Feature","geometry":{"type":"Point","coordinates":[-102.26207374,21.92060865]},"properties":{"name":"BAR SIN NOMBRE","address":"CALLE JOS&Eacute; LUIS CUEVAS #0","settlement":"FRACCIONAMIENTO PINTORES MEXICANOS","cp":"20179","id":"13846","category":"722412","i":200}},{"type":"Feature","geometry":{"type":"Point","coordinates":[-102.27758931,21.85956366]},"properties":{"name":"VINOS Y LICORES LAS VIAS","address":"CALLE VIVERO DE LA FLORESTA #102 Int 6","settlement":"FRACCIONAMIENTO CASA BLANCA","cp":"20297","id":"13989","category":"461211","i":201}},{"type":"Feature","geometry":{"type":"Point","coordinates":[-102.27251694,21.85963406]},"properties":{"name":"BAR EMPORIO CORONA","address":"AVENIDA AGUASCALIENTES SUR #1220 Int 8","settlement":"FRACCIONAMIENTO CASA BLANCA","cp":"20260","id":"14018","category":"722412","i":202}},{"type":"Feature","geometry":{"type":"Point","coordinates":[-102.27306088,21.85771859]},"properties":{"name":"LICORES ALAMEDA","address":"AVENIDA MARIANO ESCOBEDO #311","settlement":"FRACCIONAMIENTO CASA BLANCA","cp":"20297","id":"14043","category":"461211","i":203}},{"type":"Feature","geometry":{"type":"Point","coordinates":[-102.26956747,21.85781217]},"properties":{"name":"VINOS Y LICORES PABLO","address":"AVENIDA H&Eacute;ROE INMORTAL #237","settlement":"FRACCIONAMIENTO MORELOS I","cp":"20296","id":"14099","category":"461211","i":204}},{"type":"Feature","geometry":{"type":"Point","coordinates":[-102.26930818,21.85878477]},"properties":{"name":"SIX MORELOS","address":"AVENIDA H&Eacute;ROE INMORTAL #0","settlement":"FRACCIONAMIENTO JARDINES DE CASANUEVA","cp":"20297","id":"14268","category":"461212","i":205}},{"type":"Feature","geometry":{"type":"Point","coordinates":[-102.26926796,21.85639736]},"properties":{"name":"BAR CORONITA II","address":"AVENIDA H&Eacute;ROE INMORTAL #219","settlement":"FRACCIONAMIENTO MORELOS I","cp":"20298","id":"14296","category":"722412","i":206}},{"type":"Feature","geometry":{"type":"Point","coordinates":[-102.26749473,21.85482701]},"properties":{"name":"DEPOSITO DE CERVEZA NEGRO","address":"CALLE 30 DE JULIO #904","settlement":"FRACCIONAMIENTO MORELOS I","cp":"20297","id":"14370","category":"461212","i":207}},{"type":"Feature","geometry":{"type":"Point","coordinates":[-102.26384318,21.85367551]},"properties":{"name":"VENTA DE CERVEZA Y LICORES TECATE SIX","address":"AVENIDA SIGLO XXI #424","settlement":"FRACCIONAMIENTO MORELOS I","cp":"20298","id":"14401","category":"461212","i":208}},{"type":"Feature","geometry":{"type":"Point","coordinates":[-102.26648104,21.85303114]},"properties":{"name":"DEPOSITO DE CERVEZA ROY","address":"AVENIDA SIGLO XXI #310","settlement":"FRACCIONAMIENTO MORELOS I","cp":"20298","id":"14455","category":"461212","i":209}},{"type":"Feature","geometry":{"type":"Point","coordinates":[-102.26178214,21.85379116]},"properties":{"name":"LA BOLA 11 MORELOS","address":"AVENIDA SIGLO XXI #601","settlement":"FRACCIONAMIENTO MORELOS II","cp":"20298","id":"14504","category":"461212","i":210}},{"type":"Feature","geometry":{"type":"Point","coordinates":[-102.26154899,21.85384814]},"properties":{"name":"VINOS Y LICORES EL GRANDE","address":"AVENIDA SIGLO XXI #609","settlement":"FRACCIONAMIENTO MORELOS II","cp":"20298","id":"14513","category":"461211","i":211}},{"type":"Feature","geometry":{"type":"Point","coordinates":[-102.25682221,21.85422412]},"properties":{"name":"CANTERA MARIANO HIDALGO","address":"AVENIDA MARIANO HIDALGO #1009","settlement":"FRACCIONAMIENTO MORELOS","cp":"20298","id":"14667","category":"461212","i":212}},{"type":"Feature","geometry":{"type":"Point","coordinates":[-102.25638024,21.85357243]},"properties":{"name":"VINO Y LICORES SIN NOMBRE","address":"AVENIDA MARIANO HIDALGO #0","settlement":"FRACCIONAMIENTO EMILIANO ZAPATA","cp":"20298","id":"14744","category":"461211","i":213}},{"type":"Feature","geometry":{"type":"Point","coordinates":[-102.2447976,21.85856786]},"properties":{"name":"ABARROTES VINOS Y LICORES MANUELITO","address":"CALLE ARROYO #906","settlement":"FRACCIONAMIENTO LOMAS DEL CHAPUL&Iacute;N","cp":"20263","id":"14784","category":"461211","i":214}},{"type":"Feature","geometry":{"type":"Point","coordinates":[-102.25216621,21.85003146]},"properties":{"name":"DEPOSITO DE CERVEZA SIX TECATE","address":"PROLONGACI&Oacute;N AVENIDA MARIANO HIDALGO #0","settlement":"FRACCIONAMIENTO PERIODISTAS","cp":"20299","id":"14860","category":"461212","i":215}},{"type":"Feature","geometry":{"type":"Point","coordinates":[-102.24897947,21.84936484]},"properties":{"name":"VINOS Y LICORES DON LALO","address":"PROLONGACI&Oacute;N AVENIDA MARIANO HIDALGO #2701","settlement":"FRACCIONAMIENTO MUJERES ILUSTRES","cp":"20299","id":"14916","category":"461211","i":216}},{"type":"Feature","geometry":{"type":"Point","coordinates":[-102.25113176,21.84749005]},"properties":{"name":"VINOS Y LICORES LOS POLLOS","address":"CALLE DE LA ALIANZA #321","settlement":"FRACCIONAMIENTO LOMAS DEL AJEDREZ","cp":"20299","id":"14932","category":"461211","i":217}},{"type":"Feature","geometry":{"type":"Point","coordinates":[-102.25208679,21.84979543]},"properties":{"name":"BODEGAS ALAMEDA","address":"PROLONGACI&Oacute;N AVENIDA MARIANO HIDALGO #2103","settlement":"FRACCIONAMIENTO MUJERES ILUSTRES","cp":"20299","id":"15026","category":"461211","i":218}},{"type":"Feature","geometry":{"type":"Point","coordinates":[-102.25318197,21.84287339]},"properties":{"name":"DEPOSITO DE CERVEZA SIX TECATE","address":"AVENIDA DEL REY #502","settlement":"FRACCIONAMIENTO LOMAS DEL AJEDREZ","cp":"20299","id":"15099","category":"461212","i":219}},{"type":"Feature","geometry":{"type":"Point","coordinates":[-102.25347574,21.91032255]},"properties":{"name":"LICORER&Iacute;A OBETH","address":"BOULEVARD GUADALUPANO #1522","settlement":"FRACCIONAMIENTO EJIDO LAS CUMBRES","cp":"20175","id":"15414","category":"461211","i":220}},{"type":"Feature","geometry":{"type":"Point","coordinates":[-102.25468082,21.90909626]},"properties":{"name":"CHELAS Y BOTANAS","address":"BOULEVARD GUADALUPANO #1811","settlement":"FRACCIONAMIENTO EJIDO LAS CUMBRES","cp":"20175","id":"15419","category":"461212","i":221}},{"type":"Feature","geometry":{"type":"Point","coordinates":[-102.25980996,21.91126006]},"properties":{"name":"LAS M&Aacute;S BUSCADAS","address":"CALLE GRINSEL #201","settlement":"FRACCIONAMIENTO LAS CUMBRES","cp":"20170","id":"15574","category":"722412","i":222}},{"type":"Feature","geometry":{"type":"Point","coordinates":[-102.26045189,21.91193881]},"properties":{"name":"VINOS Y LICORES SIGLO XXI","address":"AVENIDA SIGLO XXI #210","settlement":"FRACCIONAMIENTO LAS CUMBRES","cp":"20170","id":"15577","category":"461211","i":223}},{"type":"Feature","geometry":{"type":"Point","coordinates":[-102.25643724,21.90711078]},"properties":{"name":"VINOS Y LICORES VALIN","address":"BOULEVARD GUADALUPANO #1205","settlement":"FRACCIONAMIENTO NAZARIO ORTIZ GARZA","cp":"20170","id":"15617","category":"461211","i":224}},{"type":"Feature","geometry":{"type":"Point","coordinates":[-102.28008252,21.91471144]},"properties":{"name":"EL OASIS VINOS Y LICORES","address":"AVENIDA AGUASCALIENTES NORTE #1201","settlement":"FRACCIONAMIENTO PARRAS","cp":"20157","id":"15632","category":"461211","i":225}},{"type":"Feature","geometry":{"type":"Point","coordinates":[-102.26825391,21.92326083]},"properties":{"name":"DEP&Oacute;SITO DE CERVEZA SIX TECATE","address":"CALLE ADORATRICES #252","settlement":"FRACCIONAMIENTO VILLAS DE NUESTRA SE&Ntilde;ORA DE LA ASUNCI&Oacute;N SECTOR ENCINO","cp":"20126","id":"15781","category":"461212","i":226}},{"type":"Feature","geometry":{"type":"Point","coordinates":[-102.27260549,21.9031884]},"properties":{"name":"LICORES TOVAR","address":"AVENIDA GABRIELA MISTRAL #0","settlement":"FRACCIONAMIENTO SANTA ANITA CUARTA SECCI&Oacute;N","cp":"20169","id":"15937","category":"461211","i":227}},{"type":"Feature","geometry":{"type":"Point","coordinates":[-102.27156144,21.90286998]},"properties":{"name":"MERENDERO LOS ADOBES","address":"AVENIDA GABRIELA MISTRAL #1001","settlement":"FRACCIONAMIENTO SANTA ANITA CUARTA SECCI&Oacute;N","cp":"","id":"15971","category":"722412","i":228}},{"type":"Feature","geometry":{"type":"Point","coordinates":[-102.31020239,21.89400534]},"properties":{"name":"BAR CLUB 21","address":"AVENIDA FUNDICI&Oacute;N #0","settlement":"COLONIA ALTAVISTA","cp":"20040","id":"15993","category":"722412","i":229}},{"type":"Feature","geometry":{"type":"Point","coordinates":[-102.31229045,21.88954933]},"properties":{"name":"PONCHOS BAR","address":"CALLE DOCTOR ALBERTO DEL VALLE #917","settlement":"COLONIA MIRAVALLE","cp":"20040","id":"16126","category":"722412","i":230}},{"type":"Feature","geometry":{"type":"Point","coordinates":[-102.2744678,21.90255958]},"properties":{"name":"VINOS Y LICORES ALAMEDA","address":"AVENIDA GABRIELA MISTRAL #0","settlement":"FRACCIONAMIENTO LOMAS DEL C&Oacute;BANO","cp":"20150","id":"16201","category":"461211","i":231}},{"type":"Feature","geometry":{"type":"Point","coordinates":[-102.28017002,21.9062407]},"properties":{"name":"VINOS Y LICORES EL PICACHO","address":"CALLE CAMINO AL C&Oacute;BANO #401","settlement":"FRACCIONAMIENTO LA ESTRELLA","cp":"20150","id":"16354","category":"461211","i":232}},{"type":"Feature","geometry":{"type":"Point","coordinates":[-102.30441489,21.89250898]},"properties":{"name":"FLAMINGOS BAR","address":"CALLE SANTA IRENE #613","settlement":"COLONIA ALTAVISTA","cp":"20040","id":"16423","category":"722412","i":233}},{"type":"Feature","geometry":{"type":"Point","coordinates":[-102.30298688,21.89291053]},"properties":{"name":"SAL&Oacute;N AGUASCALIENTES","address":"CALLE JES&Uacute;S MAR&Iacute;A RODR&Iacute;GUEZ #403","settlement":"COLONIA ALTAVISTA","cp":"20040","id":"16433","category":"722412","i":234}},{"type":"Feature","geometry":{"type":"Point","coordinates":[-102.30783675,21.89255584]},"properties":{"name":"VINOS Y LICORES LA FUENTE","address":"CALLE CARLOS BARR&Oacute;N #0","settlement":"COLONIA ALTAVISTA","cp":"20040","id":"16483","category":"461211","i":235}},{"type":"Feature","geometry":{"type":"Point","coordinates":[-102.30681418,21.89073617]},"properties":{"name":"D&Eacute;POSITO DE CERVEZA MODELORAMA","address":"AVENIDA FUNDICI&Oacute;N #403","settlement":"COLONIA DEL CARMEN","cp":"20050","id":"16566","category":"461212","i":236}},{"type":"Feature","geometry":{"type":"Point","coordinates":[-102.30685427,21.89078195]},"properties":{"name":"LA CANTERA SIN NOMBRE","address":"AVENIDA FUNDICI&Oacute;N #405","settlement":"COLONIA ALTAVISTA","cp":"20040","id":"16568","category":"461212","i":237}},{"type":"Feature","geometry":{"type":"Point","coordinates":[-102.30516205,21.89178379]},"properties":{"name":"ABARROTES Y VINOS H&Eacute;CTOR","address":"CALLE SANTA IRENE #706","settlement":"COLONIA ALTAVISTA","cp":"20040","id":"16573","category":"461211","i":238}},{"type":"Feature","geometry":{"type":"Point","coordinates":[-102.30449902,21.89131145]},"properties":{"name":"D&Eacute;POSITO ALTAVISTA","address":"CALLE CARLOS SAGREDO #310","settlement":"COLONIA ALTAVISTA","cp":"20040","id":"16595","category":"461212","i":239}},{"type":"Feature","geometry":{"type":"Point","coordinates":[-102.29716224,21.89470284]},"properties":{"name":"D&Eacute;POSITO DE CERVEZA CON VENTA DE ABARROTES SIX ZARAGOZA","address":"CALLE GENERAL IGNACIO ZARAGOZA #0","settlement":"FRACCIONAMIENTO EL SOL","cp":"20030","id":"16624","category":"461212","i":240}},{"type":"Feature","geometry":{"type":"Point","coordinates":[-102.30282016,21.89429854]},"properties":{"name":"BAR EL BOHEMIO","address":"CALLE AQUILES SERD&Aacute;N #0","settlement":"COLONIA SAN PABLO","cp":"20050","id":"16683","category":"722412","i":241}},{"type":"Feature","geometry":{"type":"Point","coordinates":[-102.29733971,21.89056355]},"properties":{"name":"TECATE EXPENDIO DE CERVEZAS","address":"CALLE MARINA NACIONAL #501","settlement":"COLONIA SAN PABLO","cp":"20050","id":"16813","category":"461212","i":242}},{"type":"Feature","geometry":{"type":"Point","coordinates":[-102.29967367,21.88751779]},"properties":{"name":"CANTINA VILLA FIERRO","address":"CALLE BENJAM&Iacute;N DE LA MORA #181","settlement":"BARRIO DE GUADALUPE","cp":"20059","id":"16960","category":"722412","i":243}},{"type":"Feature","geometry":{"type":"Point","coordinates":[-102.29785774,21.88711292]},"properties":{"name":"EL PALENQUE BAR","address":"CALLE BENJAM&Iacute;N DE LA MORA #137","settlement":"COLONIA CENTRO","cp":"20000","id":"16971","category":"722412","i":244}},{"type":"Feature","geometry":{"type":"Point","coordinates":[-102.29706677,21.88694543]},"properties":{"name":"CANTNA GARIBALDI","address":"CALLE BENJAM&Iacute;N DE LA MORA #105","settlement":"COLONIA CENTRO","cp":"20000","id":"16973","category":"722412","i":245}},{"type":"Feature","geometry":{"type":"Point","coordinates":[-102.30996898,21.88525148]},"properties":{"name":"D&Eacute;POSITO DE CERVEZA EL TRIUNFO","address":"AVENIDA GUADALUPE #705","settlement":"COLONIA HELIODORO GARC&Iacute;A","cp":"","id":"17189","category":"461211","i":246}},{"type":"Feature","geometry":{"type":"Point","coordinates":[-102.31097407,21.9160959]},"properties":{"name":"ASTRONUT","address":"AVENIDA AGUASCALIENTES NORTE #201","settlement":"FRACCIONAMIENTO BOSQUES DEL PRADO SUR","cp":"","id":"17594","category":"722412","i":247}},{"type":"Feature","geometry":{"type":"Point","coordinates":[-102.29685625,21.90683564]},"properties":{"name":"BAR ESPIRAL","address":"AVENIDA INDEPENDENCIA #0","settlement":"FRACCIONAMIENTO EL ROBLE","cp":"20130","id":"17676","category":"722412","i":248}},{"type":"Feature","geometry":{"type":"Point","coordinates":[-102.29676684,21.90580509]},"properties":{"name":"MI BOUTIKE","address":"AVENIDA INDEPENDENCIA #1108","settlement":"FRACCIONAMIENTO EL ROBLE","cp":"20130","id":"17678","category":"461211","i":249}},{"type":"Feature","geometry":{"type":"Point","coordinates":[-102.30157201,21.90301911]},"properties":{"name":"VINOS Y LICORES FATY","address":"AVENIDA CANAL INTERCEPTOR #1916","settlement":"FRACCIONAMIENTO CIRCUNVALACI&Oacute;N NORTE","cp":"20020","id":"17740","category":"461211","i":250}},{"type":"Feature","geometry":{"type":"Point","coordinates":[-102.2898691,21.90590969]},"properties":{"name":"DEP&Oacute;SITO DE CERVEZA SIX","address":"AVENIDA H&Eacute;ROE DE NACOZARI NORTE #2404","settlement":"FRACCIONAMIENTO LAS HADAS","cp":"20140","id":"17906","category":"461212","i":251}},{"type":"Feature","geometry":{"type":"Point","coordinates":[-102.29831603,21.89835593]},"properties":{"name":"BAR EL VERGEL","address":"CALLE GENERAL IGNACIO ZARAGOZA #1505","settlement":"FRACCIONAMIENTO CIRCUNVALACI&Oacute;N NORTE","cp":"20020","id":"18153","category":"722412","i":252}},{"type":"Feature","geometry":{"type":"Point","coordinates":[-102.29841673,21.89826762]},"properties":{"name":"KONTIKI VENTA DE CERVEZA","address":"CALLE GENERAL IGNACIO ZARAGOZA #1504","settlement":"FRACCIONAMIENTO CIRCUNVALACI&Oacute;N NORTE","cp":"20020","id":"18166","category":"461212","i":253}},{"type":"Feature","geometry":{"type":"Point","coordinates":[-102.3036675,21.89742342]},"properties":{"name":"D&Eacute;POSITO DE CERVEZA CON VENTA DE ABARROTES SIX","address":"AVENIDA CONVENCI&Oacute;N DE 1914 NORTE #0","settlement":"FRACCIONAMIENTO CIRCUNVALACI&Oacute;N NORTE","cp":"20020","id":"18204","category":"461212","i":254}},{"type":"Feature","geometry":{"type":"Point","coordinates":[-102.30082359,21.89714933]},"properties":{"name":"VINOS Y LICORES LALO S","address":"CALLE ALFREDO LEWIS #1212","settlement":"FRACCIONAMIENTO CIRCUNVALACI&Oacute;N NORTE","cp":"20020","id":"18235","category":"461212","i":255}},{"type":"Feature","geometry":{"type":"Point","coordinates":[-102.28985723,21.89265836]},"properties":{"name":"CANTINA REMOLINO BAR","address":"CALLE DOCTOR GER&Oacute;NIMO DE OROZCO #306","settlement":"FRACCIONAMIENTO GREMIAL","cp":"20030","id":"18525","category":"722412","i":256}},{"type":"Feature","geometry":{"type":"Point","coordinates":[-102.28973152,21.89168257]},"properties":{"name":"VINATER&Iacute;A VINEA","address":"CALLE GENERAL MIGUEL BARRAG&Aacute;N #801","settlement":"FRACCIONAMIENTO GREMIAL","cp":"20030","id":"18552","category":"461211","i":257}},{"type":"Feature","geometry":{"type":"Point","coordinates":[-102.28921288,21.88966239]},"properties":{"name":"CANTERA OBREG&Oacute;N","address":"CALLE GENERAL &Aacute;LVARO OBREG&Oacute;N #470","settlement":"FRACCIONAMIENTO PRIMAVERA","cp":"20050","id":"18599","category":"461212","i":258}},{"type":"Feature","geometry":{"type":"Point","coordinates":[-102.29248428,21.89298124]},"properties":{"name":"MONTECARLO BAR","address":"CALLE GENERAL ENRIQUE ESTRADA #202","settlement":"COLONIA GREMIAL","cp":"20030","id":"18613","category":"722412","i":259}},{"type":"Feature","geometry":{"type":"Point","coordinates":[-102.28910081,21.8894102]},"properties":{"name":"BAR UNA COPA M&Aacute;S","address":"CALLE GENERAL MIGUEL BARRAG&Aacute;N #143","settlement":"COLONIA CENTRO","cp":"20000","id":"18655","category":"722412","i":260}},{"type":"Feature","geometry":{"type":"Point","coordinates":[-102.29686251,21.88551945]},"properties":{"name":"LA BOMBILLA VINOS, S.A. DE C.V.","address":"CALLE LARREATEGUI #430","settlement":"COLONIA CENTRO","cp":"20000","id":"18757","category":"461211","i":261}},{"type":"Feature","geometry":{"type":"Point","coordinates":[-102.29704306,21.88648939]},"properties":{"name":"LA CHAMBA BAR","address":"CALLE 5 DE MAYO #523","settlement":"COLONIA CENTRO","cp":"20000","id":"18764","category":"722412","i":262}},{"type":"Feature","geometry":{"type":"Point","coordinates":[-102.29524762,21.88954494]},"properties":{"name":"CANTINA G EL RANCHERO","address":"CALLE 5 DE MAYO #685","settlement":"COLONIA CENTRO","cp":"20000","id":"18788","category":"722412","i":263}},{"type":"Feature","geometry":{"type":"Point","coordinates":[-102.29648893,21.88754706]},"properties":{"name":"LA CLARITA CANTINA TRADICIONAL","address":"PEATONAL JARD&Iacute;N DE ZARAGOZA #601","settlement":"COLONIA CENTRO","cp":"20000","id":"18908","category":"722412","i":264}},{"type":"Feature","geometry":{"type":"Point","coordinates":[-102.29653203,21.88474047]},"properties":{"name":"BAR TEXAS","address":"CALLE LICENCIADO BENITO JU&Aacute;REZ #403","settlement":"COLONIA CENTRO","cp":"","id":"19225","category":"722412","i":265}},{"type":"Feature","geometry":{"type":"Point","coordinates":[-102.29659365,21.88495916]},"properties":{"name":"CANTINA EL GALLITO","address":"CALLE LICENCIADO BENITO JU&Aacute;REZ #417","settlement":"COLONIA CENTRO","cp":"20000","id":"19229","category":"722412","i":266}},{"type":"Feature","geometry":{"type":"Point","coordinates":[-102.29679576,21.88476143]},"properties":{"name":"BAR LOS PERICOS","address":"PEATONAL ARTEAGA #142","settlement":"COLONIA CENTRO","cp":"20000","id":"19259","category":"722412","i":267}},{"type":"Feature","geometry":{"type":"Point","coordinates":[-102.28617697,21.88701074]},"properties":{"name":"CENTAURO BAR","address":"CALLE V&Aacute;ZQUEZ DEL MERCADO #0","settlement":"BARRIO DE LA PUR&Iacute;SIMA","cp":"20259","id":"19418","category":"722412","i":268}},{"type":"Feature","geometry":{"type":"Point","coordinates":[-102.28428029,21.88539182]},"properties":{"name":"MI CANTON BAR","address":"CALLE PODER LEGISLATIVO #210","settlement":"BARRIO LA PURISIMA","cp":"20259","id":"19451","category":"722412","i":269}},{"type":"Feature","geometry":{"type":"Point","coordinates":[-102.28350135,21.88454814]},"properties":{"name":"VINOS Y LICORES MOGAVI","address":"AVENIDA FRANCISCO I. MADERO #715","settlement":"BARRIO DE LA PURISIMA","cp":"20259","id":"19494","category":"461211","i":270}},{"type":"Feature","geometry":{"type":"Point","coordinates":[-102.28473879,21.8833715]},"properties":{"name":"VENTA DE CERVEZA SIX LA PUR&Iacute;SIMA","address":"CALLE EZEQUIEL A. CH&Aacute;VEZ #115","settlement":"BARRIO DE LA PURISIMA","cp":"20259","id":"19499","category":"461212","i":271}},{"type":"Feature","geometry":{"type":"Point","coordinates":[-102.30353917,22.36702804]},"properties":{"name":"VINOS Y LICORES SIN NOMBRE","address":"CALLE M&Eacute;XICO #29","settlement":"COLONIA MEXIQUITO","cp":"20460","id":"19564","category":"461211","i":272}},{"type":"Feature","geometry":{"type":"Point","coordinates":[-102.29840764,22.36900325]},"properties":{"name":"VINOS Y LICORES EL NENE","address":"CALLE GENERAL &Aacute;LVARO OBREG&Oacute;N #24","settlement":"COLONIA CENTRO","cp":"20460","id":"19592","category":"461212","i":273}},{"type":"Feature","geometry":{"type":"Point","coordinates":[-102.29944266,22.36730265]},"properties":{"name":"BAR SIN NOMBRE","address":"CALLE BENITO JU&Aacute;REZ #10","settlement":"COLONIA CENTRO","cp":"20460","id":"19600","category":"722412","i":274}},{"type":"Feature","geometry":{"type":"Point","coordinates":[-102.29987323,22.36839098]},"properties":{"name":"VINOS Y LICORES JUMA","address":"CALLE BENITO JU&Aacute;REZ #131","settlement":"COLONIA CENTRO","cp":"20460","id":"19604","category":"461211","i":275}},{"type":"Feature","geometry":{"type":"Point","coordinates":[-102.3004514,22.36748963]},"properties":{"name":"LA MILCHELADAS","address":"CALLE CORNELIO ACOSTA #0","settlement":"COLONIA CENTRO","cp":"20460","id":"19609","category":"722412","i":276}},{"type":"Feature","geometry":{"type":"Point","coordinates":[-102.30040004,22.37039964]},"properties":{"name":"VINOS Y LICORES COWBOY","address":"CALLE BENITO JU&Aacute;REZ #323","settlement":"COLONIA CENTRO","cp":"20460","id":"19682","category":"461212","i":277}},{"type":"Feature","geometry":{"type":"Point","coordinates":[-102.29410692,21.84832358]},"properties":{"name":"RESTAURANTE BAR CABA&Ntilde;A DE DON J&Oacute;S&Eacute;","address":"AVENIDA MAHATMA GANDHI #409","settlement":"FRACCIONAMIENTO PRADOS DE VILLASUNCI&Oacute;N","cp":"20280","id":"19696","category":"722412","i":278}},{"type":"Feature","geometry":{"type":"Point","coordinates":[-102.29645125,22.36446851]},"properties":{"name":"VINOS Y LICORES LA TORON","address":"AVENIDA PANAMERICANA #11","settlement":"COLONIA CENTRO","cp":"20460","id":"19762","category":"461212","i":279}},{"type":"Feature","geometry":{"type":"Point","coordinates":[-102.2993347,22.36702979]},"properties":{"name":"VINOS Y LICORES NEON","address":"CALLE BENITO JU&Aacute;REZ #101","settlement":"COLONIA CENTRO","cp":"20460","id":"19765","category":"461211","i":280}},{"type":"Feature","geometry":{"type":"Point","coordinates":[-102.28970135,21.87938667]},"properties":{"name":"BAR NIAGARA FALLS","address":"AVENIDA LICENCIADO ADOLFO L&Oacute;PEZ MATEOS PONIENTE #420","settlement":"COLONIA CENTRO","cp":"20000","id":"19777","category":"722412","i":281}},{"type":"Feature","geometry":{"type":"Point","coordinates":[-102.3005936,22.36566152]},"properties":{"name":"DEP&Oacute;SITO EL PARAISO","address":"CALLE FRANCISCO JAVIER MINA #101","settlement":"COLONIA CENTRO","cp":"20460","id":"19792","category":"461212","i":282}},{"type":"Feature","geometry":{"type":"Point","coordinates":[-102.2889246,21.88296905]},"properties":{"name":"BAR CAYE CHENU","address":"AVENIDA FRANCISCO I. MADERO #453","settlement":"COLONIA CENTRO","cp":"20000","id":"19796","category":"722412","i":283}},{"type":"Feature","geometry":{"type":"Point","coordinates":[-102.29887925,21.92494279]},"properties":{"name":"MERENDERO SAN PANCHO","address":"BOULEVARD LUIS DONALDO COLOSIO #0","settlement":"FRACCIONAMIENTO JARDINES DE LA CONCEPCI&Oacute;N PRIMERA SECCI&Oacute;N","cp":"20120","id":"19851","category":"722412","i":284}},{"type":"Feature","geometry":{"type":"Point","coordinates":[-102.29957907,21.9019139]},"properties":{"name":"DISTRIBUIDORA CAOBA","address":"CALLE GENERAL IGNACIO ZARAGOZA #1732","settlement":"FRACCIONAMIENTO CIRCUNVALACI&Oacute;N NORTE","cp":"20020","id":"19862","category":"461211","i":285}},{"type":"Feature","geometry":{"type":"Point","coordinates":[-102.30062558,21.88016994]},"properties":{"name":"BEER BOUTIQUE","address":"CALLE VENUSTIANO CARRANZA #205","settlement":"COLONIA CENTRO","cp":"20000","id":"19889","category":"461212","i":286}},{"type":"Feature","geometry":{"type":"Point","coordinates":[-102.28677943,21.88371292]},"properties":{"name":"CANTINA SIN NOMBRE","address":"AVENIDA FRANCISCO I. MADERO #516","settlement":"BARRIO DE LA ESTACI&Oacute;N","cp":"20259","id":"20045","category":"722412","i":287}},{"type":"Feature","geometry":{"type":"Point","coordinates":[-102.28770696,21.88331359]},"properties":{"name":"RESTAURANT HALLOWINGS","address":"AVENIDA FRANCISCO I. MADERO #489","settlement":"COLONIA CENTRO","cp":"20000","id":"20058","category":"722412","i":288}},{"type":"Feature","geometry":{"type":"Point","coordinates":[-102.29098711,21.88420396]},"properties":{"name":"TABERNA SANTA ROSA","address":"CALLE GENERAL IGNACIO ZARAGOZA #311","settlement":"COLONIA CENTRO","cp":"20000","id":"20111","category":"722412","i":289}},{"type":"Feature","geometry":{"type":"Point","coordinates":[-102.28341562,21.88188794]},"properties":{"name":"VINOS Y LICORES CRISTAL","address":"CALLE EZEQUIEL A. CH&Aacute;VEZ #129","settlement":"BARRIO DE LA PURISIMA","cp":"20259","id":"20222","category":"461212","i":290}},{"type":"Feature","geometry":{"type":"Point","coordinates":[-102.28067382,21.88268828]},"properties":{"name":"LICORES ALAMEDA","address":"AVENIDA ALAMEDA #237","settlement":"COLONIA BARRIO LA ESTACI&Oacute;N","cp":"20259","id":"20268","category":"461211","i":291}},{"type":"Feature","geometry":{"type":"Point","coordinates":[-102.32775609,22.23347067]},"properties":{"name":"VINOS Y LICORES EL LOBO","address":"CALLE NICOL&Aacute;S BRAVO #201","settlement":"BARRIO DE CHORA","cp":"20400","id":"20383","category":"461211","i":292}},{"type":"Feature","geometry":{"type":"Point","coordinates":[-102.32562827,22.23215807]},"properties":{"name":"VINOS Y LICORES RICOS","address":"CALLE CUAUHT&Eacute;MOC #104","settlement":"BARRIO DE CHORA","cp":"20406","id":"20393","category":"461211","i":293}},{"type":"Feature","geometry":{"type":"Point","coordinates":[-102.32437336,22.22993503]},"properties":{"name":"VINOS Y LICORES ISMAEL","address":"CALLE ALDAMA #229","settlement":"COLONIA CENTRO","cp":"20400","id":"20430","category":"461211","i":294}},{"type":"Feature","geometry":{"type":"Point","coordinates":[-102.33417804,22.24872397]},"properties":{"name":"CERVECER&Iacute;A LOS ARCOS","address":"CALLE INSURGENTES #203","settlement":" PABLO ESCALERAS","cp":"20420","id":"20447","category":"461212","i":295}},{"type":"Feature","geometry":{"type":"Point","coordinates":[-102.33271209,22.24831106]},"properties":{"name":"VINOS Y LICORES EL CANELO","address":"AVENIDA OLIVARES SANTANA NORTE #104","settlement":" PABLO ESCALERAS","cp":"20420","id":"20462","category":"461211","i":296}},{"type":"Feature","geometry":{"type":"Point","coordinates":[-102.33416505,22.25272587]},"properties":{"name":"CERVECER&Iacute;A SIN NOMBRE","address":"CALLE MIRADOR DEL GAVIL&Aacute;N #309","settlement":" PABLO ESCALERAS","cp":"20420","id":"20478","category":"722412","i":297}},{"type":"Feature","geometry":{"type":"Point","coordinates":[-102.3306748,22.25147392]},"properties":{"name":"CERVECER&Iacute;A SIN NOMBRE","address":"CALLE 5 DE MAYO #107","settlement":" PABLO ESCALERAS","cp":"20420","id":"20483","category":"461212","i":298}},{"type":"Feature","geometry":{"type":"Point","coordinates":[-102.29347124,21.88173655]},"properties":{"name":"BAR XTASIS","address":"AVENIDA FRANCISCO I. MADERO #229","settlement":"COLONIA CENTRO","cp":"20000","id":"20490","category":"722412","i":299}},{"type":"Feature","geometry":{"type":"Point","coordinates":[-102.29038457,21.88256335]},"properties":{"name":"LOS REMEDIOS DE PANCHITA BAR","address":"AVENIDA FRANCISCO I. MADERO #357","settlement":"COLONIA CENTRO","cp":"20000","id":"20503","category":"722412","i":300}},{"type":"Feature","geometry":{"type":"Point","coordinates":[-102.29014911,21.88219382]},"properties":{"name":"DANCETER&Iacute;A AN STAGE BAR PULLIMAN","address":"CALLE GENERAL IGNACIO ZARAGOZA #106","settlement":"COLONIA CENTRO","cp":"20000","id":"20505","category":"722412","i":301}},{"type":"Feature","geometry":{"type":"Point","coordinates":[-102.28561313,21.88251819]},"properties":{"name":"JOHNNY BAR","address":"CALLE JUAN DE MONTORO #601","settlement":"BARRIO DE LA PURISIMA","cp":"20259","id":"20550","category":"722412","i":302}},{"type":"Feature","geometry":{"type":"Point","coordinates":[-102.28440405,21.88219591]},"properties":{"name":"BODEGAS ALAMEDA, S.A. DE C.V.","address":"AVENIDA GLORIETA DE LA PUR&Iacute;SIMA #101","settlement":"BARRIO DE LA PURISIMA","cp":"20259","id":"20665","category":"461211","i":303}},{"type":"Feature","geometry":{"type":"Point","coordinates":[-102.28456869,21.88231883]},"properties":{"name":"BAR ALAMEDA","address":"CALLE JUAN DE MONTORO #631","settlement":"BARRIO DE LA PURISIMA","cp":"20259","id":"20671","category":"722412","i":304}},{"type":"Feature","geometry":{"type":"Point","coordinates":[-102.32425202,22.23183373]},"properties":{"name":"VINOS Y LICORES CASA BLANCA","address":"CALLE ALDAMA #102","settlement":"COLONIA CENTRO","cp":"20400","id":"20995","category":"461211","i":305}},{"type":"Feature","geometry":{"type":"Point","coordinates":[-102.32286801,22.23096472]},"properties":{"name":"CANTERA SIN NOMBRE","address":"CALLE MIGUEL HIDALGO #108","settlement":"COLONIA ZONA CENTRO","cp":"20400","id":"21020","category":"461212","i":306}},{"type":"Feature","geometry":{"type":"Point","coordinates":[-102.3229547,22.23020341]},"properties":{"name":"LOS FAROLES","address":"CALLE MIGUEL HIDALGO #109","settlement":"COLONIA CENTRO","cp":"20400","id":"21041","category":"722412","i":307}},{"type":"Feature","geometry":{"type":"Point","coordinates":[-102.32294945,22.23032274]},"properties":{"name":"LADIES BAR VALAWAY","address":"CALLE MIGUEL HIDALGO #107","settlement":"COLONIA CENTRO","cp":"20400","id":"21042","category":"722412","i":308}},{"type":"Feature","geometry":{"type":"Point","coordinates":[-102.3254933,22.22758565]},"properties":{"name":"VINOS Y LICORES LA POPULAR","address":"CALLE COAHUILA #502","settlement":"COLONIA MIGUEL HIDALGO","cp":"20400","id":"21133","category":"461211","i":309}},{"type":"Feature","geometry":{"type":"Point","coordinates":[-102.32930273,22.22644328]},"properties":{"name":"VINOS Y LICORES","address":"CALLE CHIHUAHUA #208","settlement":"COLONIA MIGUEL HIDALGO","cp":"20400","id":"21143","category":"461211","i":310}},{"type":"Feature","geometry":{"type":"Point","coordinates":[-102.32587414,22.22548079]},"properties":{"name":"VINOS Y LICORES EL PALENQUE","address":"AVENIDA CONSTITUCI&Oacute;N DE 1917 #0","settlement":"CIUDAD INDUSTRIAL SOLIDARIDAD","cp":"20416","id":"21187","category":"461211","i":311}},{"type":"Feature","geometry":{"type":"Point","coordinates":[-102.32714453,22.22088642]},"properties":{"name":"VINOS Y LICORES EL ELIGACE","address":"CALLE MANUEL ROMO CASTORENA #227","settlement":"COLONIA SOLIDARIDAD","cp":"20400","id":"21256","category":"461212","i":312}},{"type":"Feature","geometry":{"type":"Point","coordinates":[-102.31909853,22.23163426]},"properties":{"name":"VINOS LICORES HERN&Aacute;NDEZ","address":"CALLE MOTOLIN&Iacute;A ORIENTE #130","settlement":"COLONIA ZONA CENTRO","cp":"20400","id":"21309","category":"461211","i":313}},{"type":"Feature","geometry":{"type":"Point","coordinates":[-102.31798812,22.23157595]},"properties":{"name":"EXPENDIOS DE VINOS RINC&Oacute;N","address":"AVENIDA DOLORES HIDALGO #207","settlement":"FRACCIONAMIENTO JOS&Eacute; LUIS MAC&Iacute;AS","cp":"20400","id":"21310","category":"461212","i":314}},{"type":"Feature","geometry":{"type":"Point","coordinates":[-102.31806008,22.23007928]},"properties":{"name":"MUSTANG BAR","address":"AVENIDA DOLORES HIDALGO #210","settlement":"COLONIA ZONA CENTRO","cp":"20400","id":"21347","category":"722412","i":315}},{"type":"Feature","geometry":{"type":"Point","coordinates":[-102.3212401,22.22860426]},"properties":{"name":"VINOS Y LICORES CH&Aacute;VEZ","address":"AVENIDA MORELOS #133","settlement":"COLONIA CENTRO","cp":"20400","id":"21399","category":"461211","i":316}},{"type":"Feature","geometry":{"type":"Point","coordinates":[-102.31018569,21.87991349]},"properties":{"name":"VINOS Y LICORES LA BARRA DE ORO","address":"CALLE SAN MARCOS #210","settlement":"BARRIO SAN MARCOS","cp":"20070","id":"21482","category":"461211","i":317}},{"type":"Feature","geometry":{"type":"Point","coordinates":[-102.31449245,22.22955243]},"properties":{"name":"MODELORAMA DON DANY","address":"AVENIDA GENERAL &Aacute;LVARO OBREG&Oacute;N #101","settlement":"COLONIA EL CHAVE&Ntilde;O","cp":"20405","id":"21781","category":"461212","i":318}},{"type":"Feature","geometry":{"type":"Point","coordinates":[-102.3110651,22.23355053]},"properties":{"name":"CERVECER&Iacute;A SIN NOMBRE","address":"CALLE COPALLI #202","settlement":"COLONIA ESTANCIA DE CHORA","cp":"20400","id":"21809","category":"461212","i":319}},{"type":"Feature","geometry":{"type":"Point","coordinates":[-102.30968624,22.23240855]},"properties":{"name":"VINOS Y LUCORES EL CHUY","address":"CALLE OCTLI #304","settlement":"COLONIA ESTANCIA DE CHORA","cp":"20400","id":"21826","category":"461211","i":320}},{"type":"Feature","geometry":{"type":"Point","coordinates":[-102.29241579,21.91276447]},"properties":{"name":"BODEGA ALAMEDA","address":"CALLE COMERCIO #66","settlement":"FRACCIONAMIENTO CENTRO COMERCIAL AGROPECUARIO","cp":"","id":"21866","category":"461211","i":321}},{"type":"Feature","geometry":{"type":"Point","coordinates":[-102.32179594,22.2286229]},"properties":{"name":"ABARROTES VINOS Y LICORES EL PALENQUE","address":"CALLE INSURGENTES PONIENTE #115","settlement":"COLONIA CENTRO","cp":"20400","id":"21876","category":"461211","i":322}},{"type":"Feature","geometry":{"type":"Point","coordinates":[-102.32182056,22.22778875]},"properties":{"name":"VINOS Y LICORES LA CHARANDITA","address":"CALLE ED&Eacute;N #104","settlement":"COLONIA CENTRO","cp":"20400","id":"21881","category":"461211","i":323}},{"type":"Feature","geometry":{"type":"Point","coordinates":[-102.31978669,22.22321922]},"properties":{"name":"EXPENDIO DE VINOS Y LICORES EL CRUCERO","address":"AVENIDA MORELOS #0","settlement":"COLONIA SAN JOS&Eacute;","cp":"20415","id":"21905","category":"461212","i":324}},{"type":"Feature","geometry":{"type":"Point","coordinates":[-102.31901844,22.22702056]},"properties":{"name":"VINOS Y LICORES TERE","address":"CALLE M&Eacute;XICO #311","settlement":"COLONIA CENTRO","cp":"20400","id":"21958","category":"461211","i":325}},{"type":"Feature","geometry":{"type":"Point","coordinates":[-102.31838763,22.22737998]},"properties":{"name":"VINOS Y LICORES GONZ&Aacute;LEZ","address":"CALLE DOCTOR FRANCISCO GUEL JIM&Eacute;NEZ #210","settlement":"COLONIA CENTRO","cp":"20400","id":"21962","category":"461211","i":326}},{"type":"Feature","geometry":{"type":"Point","coordinates":[-102.31917191,22.22472052]},"properties":{"name":"VINOS Y LICORES EL AMIGO","address":"CALLE M&Eacute;XICO #603","settlement":"COLONIA SANTA ANITA","cp":"20400","id":"22018","category":"461211","i":327}},{"type":"Feature","geometry":{"type":"Point","coordinates":[-102.25116552,22.22765592]},"properties":{"name":"VINOS Y LICORES SAN ANTONIO","address":"CALLE PLUTARCO EL&Iacute;AS CALLES #0","settlement":" SAN ANTONIO","cp":"20630","id":"22066","category":"461211","i":328}},{"type":"Feature","geometry":{"type":"Point","coordinates":[-102.24992258,22.22883461]},"properties":{"name":"BAR LOS DOS LAREDOS","address":"CALLE AQUILES SERD&Aacute;N #17","settlement":"COLONIA CENTRO","cp":"20616","id":"22103","category":"722412","i":329}},{"type":"Feature","geometry":{"type":"Point","coordinates":[-102.24981305,22.22764109]},"properties":{"name":"VINOS Y LICORES ALASKA","address":"CALLE PLUTARCO EL&Iacute;AS CALLES #0","settlement":" SAN ANTONIO","cp":"20630","id":"22139","category":"461211","i":330}},{"type":"Feature","geometry":{"type":"Point","coordinates":[-102.24958462,22.22764207]},"properties":{"name":"VINOS Y LICORES","address":"CALLE PLUTARCO EL&Iacute;AS CALLES #110","settlement":" SAN ANTONIO","cp":"20630","id":"22140","category":"461211","i":331}},{"type":"Feature","geometry":{"type":"Point","coordinates":[-102.2506384,22.22766596]},"properties":{"name":"VINOS Y LICORES LA FUNDIDORA","address":"CALLE PLUTARCO EL&Iacute;AS CALLES #1","settlement":" SAN ANTONIO","cp":"20630","id":"22146","category":"461211","i":332}},{"type":"Feature","geometry":{"type":"Point","coordinates":[-102.25057706,22.2276646]},"properties":{"name":"CERVECER&Iacute;A EL MANANTIAL","address":"CALLE PLUTARCO EL&Iacute;AS CALLES #5","settlement":" SAN ANTONIO","cp":"20630","id":"22150","category":"461212","i":333}},{"type":"Feature","geometry":{"type":"Point","coordinates":[-102.24354161,22.22729711]},"properties":{"name":"FALAMINGOS LADIES BAR","address":"CALLE PLUTARCO EL&Iacute;AS CALLES #0","settlement":" SAN ANTONIO","cp":"20630","id":"22157","category":"722412","i":334}},{"type":"Feature","geometry":{"type":"Point","coordinates":[-102.30696712,21.88363287]},"properties":{"name":"CANTINA EL CORSARIO NEGRO","address":"CALLE RAFAEL GARC&Iacute;A MAC&Iacute;AS #289","settlement":"BARRIO DE GUADALUPE","cp":"20059","id":"22183","category":"722412","i":335}},{"type":"Feature","geometry":{"type":"Point","coordinates":[-102.3037392,21.88337902]},"properties":{"name":"BAR LA CHINA POBLANA","address":"CALLE RAFAEL GARC&Iacute;A MAC&Iacute;AS #202","settlement":"BARRIO DE GUADALUPE","cp":"20059","id":"22226","category":"722412","i":336}},{"type":"Feature","geometry":{"type":"Point","coordinates":[-102.30558517,21.87699483]},"properties":{"name":"BUFALOS BAR","address":"CALLE NIETO #651","settlement":"BARRIO SAN MARCOS","cp":"20070","id":"22324","category":"722412","i":337}},{"type":"Feature","geometry":{"type":"Point","coordinates":[-102.30425344,21.87880661]},"properties":{"name":"MERENDERO KIKOS","address":"PEATONAL ARTURO J. PANI #132","settlement":"BARRIO SAN MARCOS","cp":"20070","id":"22401","category":"722412","i":338}},{"type":"Feature","geometry":{"type":"Point","coordinates":[-102.30202587,21.87981448]},"properties":{"name":"BAR BARO","address":"CALLE EDUARDO J. CORREA #128","settlement":"BARRIO SAN MARCOS","cp":"20070","id":"22406","category":"722412","i":339}},{"type":"Feature","geometry":{"type":"Point","coordinates":[-102.30133218,21.88528772]},"properties":{"name":"BAR AURORA","address":"CALLE PLAN DE AYUTLA #102","settlement":"BARRIO DE GUADALUPE","cp":"20059","id":"22439","category":"722412","i":340}},{"type":"Feature","geometry":{"type":"Point","coordinates":[-102.30109812,21.88633012]},"properties":{"name":"BAR LA CASITA","address":"CALLE PLAN DE AYUTLA #125","settlement":"BARRIO GUADALUPE","cp":"20059","id":"22488","category":"722412","i":341}},{"type":"Feature","geometry":{"type":"Point","coordinates":[-102.30360746,21.88450088]},"properties":{"name":"BAR LA SIN RIVAL","address":"AVENIDA GUADALUPE #331","settlement":"BARRIO GUADALUPE","cp":"20059","id":"22574","category":"722412","i":342}},{"type":"Feature","geometry":{"type":"Point","coordinates":[-102.29865407,21.88409101]},"properties":{"name":"CANTINA LA CHISPA","address":"CALLE PLAZUELA JU&Aacute;REZ #101","settlement":"BARRIO GUADALUPE","cp":"20059","id":"22628","category":"722412","i":343}},{"type":"Feature","geometry":{"type":"Point","coordinates":[-102.29865155,21.88319152]},"properties":{"name":"BAR SIN NOMBRE","address":"AVENIDA GUADALUPE #120","settlement":"COLONIA CENTRO","cp":"20000","id":"22840","category":"722412","i":344}},{"type":"Feature","geometry":{"type":"Point","coordinates":[-102.30030597,21.88021953]},"properties":{"name":"BAR ESCARLOT","address":"CALLE VENUSTIANO CARRANZA #203 Int 7","settlement":"COLONIA CENTRO","cp":"20000","id":"22900","category":"722412","i":345}},{"type":"Feature","geometry":{"type":"Point","coordinates":[-102.29742565,21.8815218]},"properties":{"name":"EL BODEGUIN BAR","address":"CALLE GENERAL GUADALUPE VICTORIA #112","settlement":"COLONIA CENTRO","cp":"20000","id":"22919","category":"722412","i":346}},{"type":"Feature","geometry":{"type":"Point","coordinates":[-102.30191107,21.87994797]},"properties":{"name":"BAR EL CHUBASCO","address":"CALLE VENUSTIANO CARRANZA #310","settlement":"COLONIA CENTRO","cp":"","id":"22960","category":"722412","i":347}},{"type":"Feature","geometry":{"type":"Point","coordinates":[-102.30137142,21.8800101]},"properties":{"name":"PURA VIDA BAR","address":"CALLE VENUSTIANO CARRANZA #124","settlement":"COLONIA CENTRO","cp":"20000","id":"22989","category":"722412","i":348}},{"type":"Feature","geometry":{"type":"Point","coordinates":[-102.30082199,21.8788755]},"properties":{"name":"PULQUER&Iacute;A POSADA","address":"CALLE NIETO #445","settlement":"COLONIA CENTRO","cp":"20000","id":"22996","category":"722412","i":349}},{"type":"Feature","geometry":{"type":"Point","coordinates":[-102.30118073,21.87782273]},"properties":{"name":"BAR MIO MIO","address":"CALLE JOS&Eacute; F. ELIZONDO #0","settlement":"COLONIA CENTRO","cp":"20000","id":"23094","category":"722412","i":350}},{"type":"Feature","geometry":{"type":"Point","coordinates":[-102.30049636,21.8788905]},"properties":{"name":"BAR TEA","address":"CALLE NIETO #418","settlement":"COLONIA CENTRO","cp":"20000","id":"23103","category":"722412","i":351}},{"type":"Feature","geometry":{"type":"Point","coordinates":[-102.29869958,21.87788596]},"properties":{"name":"CANTINA TIO PEPE","address":"AVENIDA LICENCIADO ADOLFO L&Oacute;PEZ MATEOS PONIENTE #239","settlement":"COLONIA CENTRO","cp":"20000","id":"23185","category":"722412","i":352}},{"type":"Feature","geometry":{"type":"Point","coordinates":[-102.30048374,21.87742803]},"properties":{"name":"BAR LA PULCATA","address":"AVENIDA LICENCIADO ADOLFO L&Oacute;PEZ MATEOS PONIENTE #425","settlement":"COLONIA CENTRO","cp":"","id":"23200","category":"722412","i":353}},{"type":"Feature","geometry":{"type":"Point","coordinates":[-102.29714327,21.87804831]},"properties":{"name":"BAR TEMPO EL CAPORAL","address":"AVENIDA LICENCIADO ADOLFO L&Oacute;PEZ MATEOS PONIENTE #204","settlement":"CIUDAD INDUSTRIAL CENTRO","cp":"20000","id":"23278","category":"722412","i":354}},{"type":"Feature","geometry":{"type":"Point","coordinates":[-102.29524379,21.87477648]},"properties":{"name":"BAR TOLUCA","address":"CALLE PIMENTEL #105","settlement":"COLONIA OBRAJE","cp":"20230","id":"23319","category":"722412","i":355}},{"type":"Feature","geometry":{"type":"Point","coordinates":[-102.29570671,21.87797789]},"properties":{"name":"BAR PUERTO DE MAZATL&Aacute;N","address":"CALLE JOS&Eacute; MAR&Iacute;A CH&Aacute;VEZ #312","settlement":"COLONIA CENTRO","cp":"20000","id":"23668","category":"722412","i":356}},{"type":"Feature","geometry":{"type":"Point","coordinates":[-102.28911089,21.87791176]},"properties":{"name":"BAR EL LIM&Oacute;N","address":"CALLE JOSEFA ORTIZ DE DOM&Iacute;NGUEZ #400","settlement":"COLONIA EL LLANITO","cp":"20240","id":"23790","category":"722412","i":357}},{"type":"Feature","geometry":{"type":"Point","coordinates":[-102.29255082,21.87549409]},"properties":{"name":"VINOS Y LICORES SIN NOMBRE","address":"CALLE LEONA VICARIO #101","settlement":"BARRIO EL ENCINO","cp":"20240","id":"23801","category":"461211","i":358}},{"type":"Feature","geometry":{"type":"Point","coordinates":[-102.28908563,21.87323833]},"properties":{"name":"EL GRANERO INN","address":"AVENIDA PASEO DE LA CRUZ #1605","settlement":"BARRIO EL ENCINO","cp":"20240","id":"23899","category":"722412","i":359}},{"type":"Feature","geometry":{"type":"Point","coordinates":[-102.29004952,21.87293552]},"properties":{"name":"BAKANO","address":"AVENIDA PASEO DE LA CRUZ #501","settlement":"BARRIO EL ENCINO","cp":"20240","id":"23904","category":"722412","i":360}},{"type":"Feature","geometry":{"type":"Point","coordinates":[-102.29127254,21.87246721]},"properties":{"name":"CANTARES BAR","address":"AVENIDA PASEO DE LA CRUZ #124","settlement":"FRACCIONAMIENTO TRIANA","cp":"20240","id":"23914","category":"722412","i":361}},{"type":"Feature","geometry":{"type":"Point","coordinates":[-102.29164821,21.87234948]},